{
  "version": 0.6,
  "generator": "Overpass API 0.7.55.9 ab41fea6",
  "osm3s": {
    "timestamp_osm_base": "2020-03-01T10:06:02Z",
    "copyright": "The data included in this document is from www.openstreetmap.org. The data is made available under ODbL."
  },
  "elements": [

{
  "type": "node",
  "id": 170206989,
  "lat": 35.3109356,
  "lon": 139.1425149,
  "tags": {
    "name": "栢山",
    "name:en": "Kayama",
    "name:ja": "栢山",
    "name:ko": "가야마",
    "name:ru": "Каяма",
    "railway": "station",
    "wikidata": "Q4218388",
    "wikipedia": "ru:Каяма (станция)"
  }
},
{
  "type": "node",
  "id": 172522965,
  "lat": 35.4868754,
  "lon": 139.6541635,
  "tags": {
    "name": "新子安",
    "name:en": "Shin-Koyasu",
    "name:ja": "新子安",
    "name:ja_kana": "しんこやす",
    "name:ja_rm": "Shin-Koyasu",
    "name:ko": "신코야스",
    "name:ru": "Син-Коясу",
    "operator": "東日本旅客鉄道",
    "public_transport": "station",
    "railway": "station",
    "wikidata": "Q128314",
    "wikipedia": "ja:新子安駅"
  }
},
{
  "type": "node",
  "id": 172670767,
  "lat": 35.7280787,
  "lon": 139.7712593,
  "tags": {
    "addr:block_number": "2",
    "addr:country": "JP",
    "addr:housenumber": "19-1",
    "addr:postcode": "116-0013",
    "addr:quarter": "西日暮里",
    "addr:suburb": "荒川区",
    "name": "日暮里",
    "name:en": "Nippori",
    "name:es": "Nippori Keisei",
    "name:it": "Nippori",
    "name:ja": "日暮里",
    "name:ja-Hira": "にっぽり",
    "name:ja-Latn": "Nippori",
    "name:ko": "닛포리",
    "operator": "京成電鉄 (Keisei Electric Railway)",
    "phone": "+81 3 3891 4289",
    "public_transport": "station",
    "railway": "station",
    "ref": "KS02",
    "toilets:wheelchair": "yes",
    "train": "yes",
    "wheelchair": "yes",
    "wikidata": "Q801262",
    "wikipedia": "ja:日暮里駅"
  }
},
{
  "type": "node",
  "id": 172704865,
  "lat": 35.7120331,
  "lon": 140.1080135,
  "tags": {
    "alt_name": "大和田",
    "name": "京成大和田",
    "name:en": "Keisei-Owada",
    "name:it": "Keisei Owada",
    "name:ja": "京成大和田",
    "name:ja-Hira": "けいせいおおわだ",
    "name:ja-Latn": "Keisei-Ōwada",
    "name:ko": "게이세이오와다",
    "operator": "京成電鉄",
    "platforms": "2",
    "public_transport": "station",
    "railway": "station",
    "ref": "KS30",
    "wikidata": "Q6383852",
    "wikipedia": "ja:京成大和田駅"
  }
},
{
  "type": "node",
  "id": 196838866,
  "lat": 35.7007911,
  "lon": 139.6973187,
  "tags": {
    "maxspeed": "95",
    "name": "大久保",
    "name:en": "Ōkubo",
    "name:ja": "大久保",
    "name:ja_kana": "おおくぼ",
    "name:ja_rm": "Ōkubo",
    "name:ko": "오쿠보",
    "name:ru": "Окубо",
    "operator": "東日本旅客鉄道",
    "public_transport": "station",
    "railway": "station",
    "ref": "JB09",
    "wikidata": "Q116259",
    "wikipedia": "ja:大久保駅 (東京都)"
  }
},
{
  "type": "node",
  "id": 196838894,
  "lat": 35.7062386,
  "lon": 139.6848775,
  "tags": {
    "maxspeed": "95",
    "name": "東中野",
    "name:en": "Higashi-Nakano",
    "name:ja": "東中野",
    "name:ja_kana": "ひがしなかの",
    "name:ja_rm": "Higashi Nakano",
    "name:ko": "히가시나카노",
    "name:ru": "Хигаси Накано",
    "public_transport": "station",
    "railway": "station",
    "wikidata": "Q800921",
    "wikipedia": "ja:東中野駅"
  }
},
{
  "type": "node",
  "id": 236578383,
  "lat": 35.7069531,
  "lon": 139.7746303,
  "tags": {
    "name": "御徒町",
    "name:en": "Okachimachi",
    "name:ja": "御徒町",
    "name:ja_kana": "おかちまち",
    "name:ja_rm": "Okachimachi",
    "name:ko": "오카치마치",
    "name:ru": "Окатимати",
    "operator": "東日本旅客鉄道",
    "public_transport": "station",
    "railway": "station",
    "train": "yes",
    "wikidata": "Q801296",
    "wikipedia": "ja:御徒町駅"
  }
},
{
  "type": "node",
  "id": 236578444,
  "lat": 35.7133757,
  "lon": 139.7766557,
  "tags": {
    "highspeed": "yes",
    "name": "上野",
    "name:de": "Ueno (Tōhoku-Hauptlinie)",
    "name:en": "Ueno",
    "name:es": "Ueno",
    "name:fr": "Ueno",
    "name:ja": "上野",
    "name:ko": "우에노",
    "name:ru": "Уэно",
    "public_transport": "station",
    "railway": "station",
    "source": "KSJ2",
    "toilets:wheelchair": "yes",
    "train": "yes",
    "wheelchair": "yes",
    "wikidata": "Q801551",
    "wikipedia": "ja:上野駅"
  }
},
{
  "type": "node",
  "id": 236578577,
  "lat": 35.7203576,
  "lon": 139.7790442,
  "tags": {
    "name": "鶯谷",
    "name:en": "Uguisudani",
    "name:es": "Uguisudani",
    "name:fr": "Uguisudani",
    "name:ja": "鶯谷",
    "name:ja_kana": "うぐいすだに",
    "name:ja_rm": "Uguisudani",
    "name:ko": "우구이스다니",
    "name:ru": "Угуисудани",
    "operator": "東日本旅客鉄道",
    "public_transport": "station",
    "railway": "station",
    "toilets:wheelchair": "yes",
    "train": "yes",
    "wheelchair": "yes",
    "wikidata": "Q801546",
    "wikipedia": "ja:鶯谷駅"
  }
},
{
  "type": "node",
  "id": 236578667,
  "lat": 35.7281306,
  "lon": 139.7704643,
  "tags": {
    "name": "日暮里",
    "name:en": "Nippori",
    "name:es": "Nippori JR",
    "name:it": "Nippori",
    "name:ja": "日暮里",
    "name:ja-Hira": "にっぽり",
    "name:ja-Latn": "Nippori",
    "name:ko": "닛포리",
    "name:ru": "Ниппори",
    "name:th": "นิปโปะริ",
    "operator": "東日本旅客鉄道",
    "public_transport": "station",
    "railway": "station",
    "toilets:wheelchair": "yes",
    "train": "yes",
    "wheelchair": "yes",
    "wikidata": "Q801262",
    "wikipedia": "ja:日暮里駅"
  }
},
{
  "type": "node",
  "id": 236578741,
  "lat": 35.7322977,
  "lon": 139.7665882,
  "tags": {
    "name": "西日暮里",
    "name:en": "Nishi-Nippori",
    "name:it": "Nishi-Nippori",
    "name:ja": "西日暮里",
    "name:ja-Hira": "にしにっぽり",
    "name:ja-Latn": "Nishi Nippori",
    "name:ko": "니시닛포리",
    "name:ru": "Ниси-Ниппори",
    "network": "東京近郊区間",
    "operator": "東日本旅客鉄道",
    "public_transport": "station",
    "railway": "station",
    "subway": "no",
    "train": "yes",
    "wikidata": "Q636845",
    "wikipedia": "ja:西日暮里駅"
  }
},
{
  "type": "node",
  "id": 236578838,
  "lat": 35.7373701,
  "lon": 139.7617151,
  "tags": {
    "name": "田端",
    "name:en": "Tabata",
    "name:ja": "田端",
    "name:ja_kana": "たばた",
    "name:ja_rm": "Tabata",
    "name:ko": "다바타",
    "name:ru": "Табата",
    "operator": "東日本旅客鉄道",
    "public_transport": "station",
    "railway": "station",
    "toilets:wheelchair": "yes",
    "wheelchair": "yes",
    "wikidata": "Q801503",
    "wikipedia": "ja:田端駅"
  }
},
{
  "type": "node",
  "id": 236579053,
  "lat": 35.7365848,
  "lon": 139.7472412,
  "tags": {
    "name": "駒込",
    "name:en": "Komagome",
    "name:es": "Komagome",
    "name:ja": "駒込",
    "name:ja_kana": "こまごめ",
    "name:ja_rm": "Komagome",
    "name:ko": "고마고메",
    "name:ru": "Комагомэ",
    "operator": "東日本旅客鉄道",
    "public_transport": "station",
    "railway": "station",
    "train": "yes",
    "wikidata": "Q801032",
    "wikipedia": "ja:駒込駅"
  }
},
{
  "type": "node",
  "id": 236579126,
  "lat": 35.7334119,
  "lon": 139.7394273,
  "tags": {
    "name": "巣鴨",
    "name:en": "Sugamo",
    "name:ja": "巣鴨",
    "name:ja_kana": "すがも",
    "name:ja_rm": "Sugamo",
    "name:ko": "스가모",
    "name:ru": "Сугамо",
    "operator": "東日本旅客鉄道",
    "public_transport": "station",
    "railway": "station",
    "train": "yes",
    "wikidata": "Q801500",
    "wikipedia": "ja:巣鴨駅"
  }
},
{
  "type": "node",
  "id": 236579274,
  "lat": 35.7317401,
  "lon": 139.7283438,
  "tags": {
    "name": "大塚",
    "name:en": "Ōtsuka",
    "name:ja": "大塚",
    "name:ja_rm": "Ōtsuka",
    "name:ko": "오츠카",
    "name:ru": "Оцука",
    "operator": "東日本旅客鉄道",
    "public_transport": "station",
    "railway": "station",
    "train": "yes",
    "wikidata": "Q801696",
    "wikipedia": "ja:大塚駅 (東京都)"
  }
},
{
  "type": "node",
  "id": 236579696,
  "lat": 35.7013007,
  "lon": 139.7002421,
  "tags": {
    "name": "新大久保",
    "name:en": "Shin-Ōkubo",
    "name:ja_kana": "しんおおくぼ",
    "name:ja_rm": "Shin-Ōkubo",
    "name:ko": "신 오쿠보",
    "name:ru": "Син-Окубо",
    "operator": "東日本旅客鉄道",
    "public_transport": "station",
    "railway": "station",
    "train": "yes",
    "wheelchair": "yes",
    "wikidata": "Q589599",
    "wikipedia": "ja:新大久保駅"
  }
},
{
  "type": "node",
  "id": 240509491,
  "lat": 36.3707810,
  "lon": 140.4762395,
  "tags": {
    "name": "水戸",
    "name:en": "Mito",
    "name:ja-Hira": "みと",
    "name:ja-Latn": "Mito",
    "public_transport": "station",
    "railway": "station",
    "source": "KSJ2",
    "train": "yes",
    "wikidata": "Q909499",
    "wikipedia": "ja:水戸駅"
  }
},
{
  "type": "node",
  "id": 240510683,
  "lat": 35.7333412,
  "lon": 139.7774122,
  "tags": {
    "name": "三河島",
    "name:en": "Mikawashima",
    "name:es": "Mikawashima",
    "name:ja": "三河島",
    "name:ja-Hira": "みかわしま",
    "name:ja-Latn": "Mikawashima",
    "name:ko": "미카와시마",
    "name:th": "มิกะวะชิมะ",
    "operator": "東日本旅客鉄道",
    "operator:en": "East Japan Railway Company",
    "public_transport": "station",
    "railway": "station",
    "ref": "JJ03",
    "train": "yes",
    "wikidata": "Q865170",
    "wikipedia": "ja:三河島駅"
  }
},
{
  "type": "node",
  "id": 241815384,
  "lat": 35.6193759,
  "lon": 139.7284740,
  "tags": {
    "maxspeed": "100",
    "name": "大崎",
    "name:en": "Ōsaki",
    "name:es": "Osaki",
    "name:ja": "大崎",
    "name:ja_kana": "おおさき",
    "name:ja_rm": "Ōsaki",
    "name:ko": "오사키",
    "name:ru": "Осаки",
    "operator": "東日本旅客鉄道;東京臨海高速鉄道",
    "public_transport": "station",
    "railway": "station",
    "station": "subway",
    "subway": "yes",
    "train": "yes",
    "wheelchair": "yes",
    "wikidata": "Q801695",
    "wikipedia": "ja:大崎駅"
  }
},
{
  "type": "node",
  "id": 241817823,
  "lat": 35.7486322,
  "lon": 139.7024528,
  "tags": {
    "name": "大山",
    "name:en": "Oyama",
    "name:ja": "大山",
    "name:ja_kana": "おおやま",
    "name:ja_rm": "Ōyama",
    "name:ko": "오야마",
    "name:ru": "Ояма",
    "operator": "東武鉄道",
    "public_transport": "station",
    "railway": "station",
    "ref": "TJ04",
    "url": "http://www.tobu.co.jp/station/info/7203.html",
    "wikidata": "Q8081809",
    "wikipedia": "ja:大山駅 (東京都)"
  }
},
{
  "type": "node",
  "id": 241817902,
  "lat": 35.7409711,
  "lon": 139.7168664,
  "tags": {
    "name": "北池袋",
    "name:en": "Kita-ikebukuro",
    "name:ja": "北池袋",
    "name:ja_kana": "きたいけぶくろ",
    "name:ja_rm": "Kita Ikebukuro",
    "name:ko": "기타이케부쿠로",
    "name:ru": "Кита-Икебукуро",
    "operator": "東武鉄道",
    "public_transport": "station",
    "railway": "station",
    "ref": "TJ02",
    "wikidata": "Q6417547",
    "wikipedia": "ja:北池袋駅"
  }
},
{
  "type": "node",
  "id": 241896099,
  "lat": 35.6579744,
  "lon": 139.7016936,
  "tags": {
    "description": "Yamanote line",
    "name": "渋谷",
    "name:en": "Shibuya",
    "name:es": "Shibuya",
    "name:fr": "Shibuya",
    "name:ja": "渋谷",
    "name:ja_rm": "Shibuya",
    "name:ko": "시부야",
    "name:ru": "Сибуя",
    "name:zh": "涩谷",
    "public_transport": "station",
    "railway": "station",
    "train": "yes",
    "wheelchair": "yes",
    "wikidata": "Q428811",
    "wikipedia": "ja:渋谷駅"
  }
},
{
  "type": "node",
  "id": 243818922,
  "lat": 35.4980487,
  "lon": 138.7689941,
  "tags": {
    "name": "河口湖",
    "name:en": "Kawaguchiko",
    "name:ja": "河口湖",
    "name:ko": "가와구치코",
    "railway": "station",
    "wikidata": "Q6379504",
    "wikipedia": "ja:河口湖駅"
  }
},
{
  "type": "node",
  "id": 243818935,
  "lat": 35.4894741,
  "lon": 138.7819013,
  "tags": {
    "name": "富士急ハイランド",
    "name:en": "Fujikyu Highland",
    "name:ja": "富士急ハイランド",
    "name:ko": "후지큐하이랜드",
    "operator": "富士急",
    "railway": "station",
    "wikidata": "Q843037",
    "wikipedia": "ja:富士急ハイランド駅"
  }
},
{
  "type": "node",
  "id": 243818949,
  "lat": 35.4835487,
  "lon": 138.7958212,
  "tags": {
    "name": "富士山",
    "name:en": "Fujisan",
    "name:ja": "富士山",
    "name:ko": "후지산",
    "railway": "station",
    "wikidata": "Q5507478",
    "wikipedia": "ja:富士山駅"
  }
},
{
  "type": "node",
  "id": 243818965,
  "lat": 35.4932012,
  "lon": 138.7980004,
  "tags": {
    "name": "月江寺",
    "name:en": "Gekkoji",
    "name:ja": "月江寺",
    "name:ko": "겟코지",
    "railway": "station",
    "wikidata": "Q5530322",
    "wikipedia": "ja:月江寺駅"
  }
},
{
  "type": "node",
  "id": 243818992,
  "lat": 35.4979344,
  "lon": 138.8036180,
  "tags": {
    "name": "下吉田",
    "name:en": "Shimoyoshida",
    "name:ja": "下吉田",
    "name:ja_rm": "Shimoyoshida",
    "name:ko": "시모요시다",
    "railway": "station",
    "wikidata": "Q7497026",
    "wikipedia": "ja:下吉田駅"
  }
},
{
  "type": "node",
  "id": 243819029,
  "lat": 35.5020392,
  "lon": 138.8120309,
  "tags": {
    "alt_name:ko": "요시이케온센마에",
    "name": "葭池温泉前",
    "name:en": "Yoshiikeonsenmae",
    "name:ja": "葭池温泉前",
    "name:ja_rm": "Yoshiikeonsenmae",
    "name:ko": "요시이케온천앞",
    "railway": "station",
    "wikidata": "Q8013211",
    "wikipedia": "ja:葭池温泉前駅"
  }
},
{
  "type": "node",
  "id": 243819132,
  "lat": 35.5082675,
  "lon": 138.8253295,
  "tags": {
    "name": "寿",
    "name:en": "Kotobuki",
    "name:ja": "寿",
    "name:ja_kana": "ことぶき",
    "name:ja_rm": "Kotobuki",
    "name:ko": "고토부키",
    "railway": "station",
    "wikidata": "Q6434150",
    "wikipedia": "ja:寿駅"
  }
},
{
  "type": "node",
  "id": 243819227,
  "lat": 35.5241054,
  "lon": 138.8452910,
  "tags": {
    "name": "三つ峠",
    "name:en": "Mitsutouge",
    "name:ja": "三つ峠",
    "name:ko": "미쓰토게",
    "railway": "station",
    "wikidata": "Q6883395",
    "wikipedia": "ja:三つ峠駅"
  }
},
{
  "type": "node",
  "id": 243819279,
  "lat": 35.5364776,
  "lon": 138.8710343,
  "tags": {
    "name": "東桂",
    "name:en": "Higashikatsura",
    "name:ja": "東桂",
    "name:ja_kana": "ひがしかつら",
    "name:ja_rm": "Higashikatsura",
    "name:ko": "히가시카쓰라",
    "railway": "station",
    "wikidata": "Q5753640",
    "wikipedia": "ja:東桂駅"
  }
},
{
  "type": "node",
  "id": 243819309,
  "lat": 35.5388845,
  "lon": 138.8875929,
  "tags": {
    "name": "十日市場",
    "name:en": "Tokaichiba",
    "name:ja": "十日市場",
    "name:ja_kana": "とおかいちば",
    "name:ja_rm": "Tokaichiba",
    "name:ko": "도카이치바",
    "railway": "station",
    "wikidata": "Q7862683",
    "wikipedia": "ja:十日市場駅 (山梨県)"
  }
},
{
  "type": "node",
  "id": 243819327,
  "lat": 35.5427001,
  "lon": 138.8967370,
  "tags": {
    "alt_name:ko": "쓰루분카다이가쿠마에",
    "name": "都留文科大学前",
    "name:en": "Tsurubunkadaigakumae",
    "name:ja": "都留文科大学前",
    "name:ko": "쓰루문과대학앞",
    "railway": "station",
    "wikidata": "Q7850252",
    "wikipedia": "ja:都留文科大学前駅"
  }
},
{
  "type": "node",
  "id": 243819378,
  "lat": 35.5506147,
  "lon": 138.9045731,
  "tags": {
    "name": "谷村町",
    "name:en": "Yamuramachi",
    "name:ja": "谷村町",
    "name:ko": "야무라마치",
    "railway": "station",
    "wikidata": "Q8013193",
    "wikipedia": "ja:谷村町駅"
  }
},
{
  "type": "node",
  "id": 243819402,
  "lat": 35.5569970,
  "lon": 138.9075641,
  "tags": {
    "name": "都留市",
    "name:en": "Tsurushi",
    "name:ja": "都留市",
    "name:ko": "쓰루시",
    "railway": "station",
    "wikidata": "Q7850306",
    "wikipedia": "ja:都留市駅"
  }
},
{
  "type": "node",
  "id": 243819425,
  "lat": 35.5662202,
  "lon": 138.9161361,
  "tags": {
    "name": "赤坂",
    "name:en": "Akasaka",
    "name:ja": "赤坂",
    "name:ko": "아카사카",
    "railway": "station",
    "wikidata": "Q4700316",
    "wikipedia": "ja:赤坂駅 (山梨県)"
  }
},
{
  "type": "node",
  "id": 243819437,
  "lat": 35.5750909,
  "lon": 138.9290533,
  "tags": {
    "name": "禾生",
    "name:en": "Kasei",
    "name:ja": "禾生",
    "name:ko": "가세이",
    "railway": "station",
    "wikidata": "Q6374100",
    "wikipedia": "ja:禾生駅"
  }
},
{
  "type": "node",
  "id": 243819490,
  "lat": 35.5932043,
  "lon": 138.9312172,
  "tags": {
    "name": "田野倉",
    "name:en": "Tanokura",
    "name:ja": "田野倉",
    "name:ja_kana": "たのくら",
    "name:ja_rm": "Tanokura",
    "name:ko": "다노쿠라",
    "railway": "station",
    "wikidata": "Q7683727",
    "wikipedia": "ja:田野倉駅"
  }
},
{
  "type": "node",
  "id": 243819511,
  "lat": 35.6095614,
  "lon": 138.9380121,
  "tags": {
    "name": "上大月",
    "name:en": "Kamiotsuki",
    "name:ja": "上大月",
    "name:ja_kana": "かみおおつき",
    "name:ja_rm": "Kamiotsuki",
    "name:ko": "가미오쓰키",
    "railway": "station",
    "wikidata": "Q8139880",
    "wikipedia": "ja:上大月駅"
  }
},
{
  "type": "node",
  "id": 243887227,
  "lat": 35.8909919,
  "lon": 139.4972710,
  "tags": {
    "name": "新河岸",
    "name:en": "Shingashi",
    "name:ja": "新河岸",
    "name:ja_kana": "しんがし",
    "name:ja_rm": "Shingashi",
    "name:ko": "신가시",
    "name:ru": "Сингаси",
    "operator": "東武鉄道",
    "public_transport": "station",
    "railway": "station",
    "ref": "TJ20",
    "wikidata": "Q7497441",
    "wikipedia": "ja:新河岸駅"
  }
},
{
  "type": "node",
  "id": 243887230,
  "lat": 35.8739286,
  "lon": 139.5118698,
  "tags": {
    "name": "上福岡",
    "name:en": "Kami-fukuoka",
    "name:ja": "上福岡",
    "name:ja_kana": "かみふくおか",
    "name:ja_rm": "Kami Fukuoka",
    "name:ko": "가미후쿠오카",
    "name:ru": "Ками-Фукуока",
    "operator": "東武鉄道",
    "public_transport": "station",
    "railway": "station",
    "ref": "TJ19",
    "wheelchair": "yes",
    "wikidata": "Q11360002",
    "wikipedia": "ja:上福岡駅"
  }
},
{
  "type": "node",
  "id": 243887231,
  "lat": 35.8608646,
  "lon": 139.5231078,
  "tags": {
    "name": "ふじみ野",
    "name:en": "Fujimino",
    "name:ja": "ふじみ野",
    "name:ja_kana": "ふじみの",
    "name:ja_rm": "Fujimino",
    "name:ko": "후지미노",
    "name:ru": "Фудзимино",
    "operator": "東武鉄道",
    "public_transport": "station",
    "railway": "station",
    "ref": "TJ18",
    "wikidata": "Q5507442",
    "wikipedia": "ja:ふじみ野駅"
  }
},
{
  "type": "node",
  "id": 243887240,
  "lat": 35.8457833,
  "lon": 139.5394403,
  "tags": {
    "name": "鶴瀬",
    "name:en": "Tsuruse",
    "name:ja": "鶴瀬",
    "name:ja_kana": "つるせ",
    "name:ja_rm": "Tsuruse",
    "name:ko": "쓰루세",
    "name:ru": "Цурусэ",
    "operator": "東武鉄道",
    "public_transport": "station",
    "railway": "station",
    "ref": "TJ17",
    "wikidata": "Q7850302",
    "wikipedia": "ja:鶴瀬駅"
  }
},
{
  "type": "node",
  "id": 243887242,
  "lat": 35.8382897,
  "lon": 139.5508963,
  "tags": {
    "name": "みずほ台",
    "name:en": "Mizuhodai",
    "name:ja": "みずほ台",
    "name:ja_kana": "みずほだい",
    "name:ja_rm": "Mizuhodai",
    "name:ko": "미즈호다이",
    "name:ru": "Мидзуходай",
    "operator": "東武鉄道",
    "public_transport": "station",
    "railway": "station",
    "ref": "TJ16",
    "wikidata": "Q6884805",
    "wikipedia": "ja:みずほ台駅"
  }
},
{
  "type": "node",
  "id": 243887244,
  "lat": 35.8308061,
  "lon": 139.5621719,
  "tags": {
    "name": "柳瀬川",
    "name:en": "Yanasegawa",
    "name:ja": "柳瀬川",
    "name:ja_kana": "やなせがわ",
    "name:ja_rm": "Yanasegawa",
    "name:ko": "야나세가와",
    "name:ru": "Янасэгава",
    "operator": "東武鉄道",
    "public_transport": "station",
    "railway": "station",
    "ref": "TJ15",
    "wikidata": "Q8048266",
    "wikipedia": "ja:柳瀬川駅"
  }
},
{
  "type": "node",
  "id": 243887247,
  "lat": 35.8223560,
  "lon": 139.5752607,
  "tags": {
    "name": "志木",
    "name:en": "Shiki",
    "name:ja": "志木",
    "name:ja_kana": "しき",
    "name:ja_rm": "Shiki",
    "name:ko": "시키",
    "name:ru": "Сики",
    "operator": "東武鉄道",
    "public_transport": "station",
    "railway": "station",
    "ref": "TJ14",
    "wikidata": "Q5367643",
    "wikipedia": "ja:志木駅"
  }
},
{
  "type": "node",
  "id": 243887260,
  "lat": 35.7971194,
  "lon": 139.6001930,
  "tags": {
    "name": "朝霞",
    "name:en": "Asaka",
    "name:ja": "朝霞",
    "name:ja_kana": "あさか",
    "name:ja_rm": "Asaka",
    "name:ko": "아사카",
    "name:ru": "Асака",
    "operator": "東武鉄道",
    "public_transport": "station",
    "railway": "station",
    "ref": "TJ12",
    "train": "yes",
    "wikidata": "Q4803419",
    "wikipedia": "ja:朝霞駅"
  }
},
{
  "type": "node",
  "id": 243887309,
  "lat": 35.7706013,
  "lon": 139.6445560,
  "tags": {
    "name": "下赤塚",
    "name:en": "Shimo-akatsuka",
    "name:ja": "下赤塚",
    "name:ja_kana": "しもあかつか",
    "name:ja_rm": "Shimo Akatsuka",
    "name:ko": "시모아카쓰카",
    "name:ru": "Симо-Акацука",
    "operator": "東武鉄道",
    "public_transport": "station",
    "railway": "station",
    "ref": "TJ09",
    "wheelchair": "yes",
    "wikidata": "Q7496913",
    "wikipedia": "ja:下赤塚駅"
  }
},
{
  "type": "node",
  "id": 243887355,
  "lat": 35.7635967,
  "lon": 139.6765690,
  "tags": {
    "name": "上板橋",
    "name:en": "Kami-itabashi",
    "name:ja": "上板橋",
    "name:ja_kana": "かみいたばし",
    "name:ja_rm": "Kami Itabashi",
    "name:ko": "가미이타바시",
    "name:ru": "Ками-Итабаси",
    "operator": "東武鉄道",
    "public_transport": "station",
    "railway": "station",
    "ref": "TJ07",
    "wikidata": "Q6357144",
    "wikipedia": "ja:上板橋駅"
  }
},
{
  "type": "node",
  "id": 243887360,
  "lat": 35.7589509,
  "lon": 139.6885556,
  "tags": {
    "name": "ときわ台",
    "name:en": "Tokiwadai",
    "name:ja": "ときわ台",
    "name:ja_kana": "ときわだい",
    "name:ja_rm": "Tokiwadai",
    "name:ko": "도키와다이",
    "name:ru": "Токивадай",
    "operator": "東武鉄道",
    "public_transport": "station",
    "railway": "station",
    "ref": "TJ06",
    "wikidata": "Q7813626",
    "wikipedia": "ja:ときわ台駅 (東京都)"
  }
},
{
  "type": "node",
  "id": 243887366,
  "lat": 35.7564299,
  "lon": 139.6941640,
  "tags": {
    "name": "中板橋",
    "name:en": "Naka-itabashi",
    "name:ja": "中板橋",
    "name:ja_kana": "なかいたばし",
    "name:ja_rm": "Naka Itabashi",
    "name:ko": "나카이타바시",
    "name:ru": "Нака-Итабаси",
    "operator": "東武鉄道",
    "public_transport": "station",
    "railway": "station",
    "ref": "TJ05",
    "wikidata": "Q6960085",
    "wikipedia": "ja:中板橋駅"
  }
},
{
  "type": "node",
  "id": 243887391,
  "lat": 35.6441395,
  "lon": 139.6988317,
  "tags": {
    "name": "中目黒",
    "name:en": "Naka-meguro",
    "name:es": "Naka-meguro",
    "name:fr": "Nakameguro",
    "name:ja": "中目黒",
    "name:ja_rm": "Naka Meguro",
    "name:ko": "나카메구로",
    "name:ru": "Нака Мэгуро",
    "operator": "東京急行電鉄;東京地下鉄",
    "public_transport": "station",
    "railway": "station",
    "ref": "TY03",
    "station": "subway",
    "subway": "yes",
    "toilets:wheelchair": "yes",
    "wheelchair": "yes",
    "wikidata": "Q1132605",
    "wikipedia": "ja:中目黒駅"
  }
},
{
  "type": "node",
  "id": 243887757,
  "lat": 35.6060180,
  "lon": 139.0376821,
  "tags": {
    "name": "梁川",
    "name:en": "Yanagawa",
    "name:ja": "梁川",
    "name:ja-Hira": "やながわ",
    "name:ja-Latn": "Yanagawa",
    "name:ko": "야나가와",
    "operator": "東日本旅客鉄道",
    "platforms": "2",
    "public_transport": "station",
    "railway": "station",
    "train": "yes",
    "wikidata": "Q8017468",
    "wikipedia": "ja:梁川駅 (山梨県)"
  }
},
{
  "type": "node",
  "id": 243887820,
  "lat": 35.6128739,
  "lon": 138.9680239,
  "tags": {
    "name": "猿橋",
    "name:en": "Saruhashi",
    "name:ja-Hira": "さるはし",
    "name:ja-Latn": "Saruhashi",
    "operator": "東日本旅客鉄道",
    "platforms": "2",
    "public_transport": "station",
    "railway": "station",
    "train": "yes",
    "wikidata": "Q7424710",
    "wikipedia": "ja:猿橋駅"
  }
},
{
  "type": "node",
  "id": 244878145,
  "lat": 35.8281232,
  "lon": 139.6903799,
  "tags": {
    "name": "蕨",
    "name:en": "Warabi",
    "name:ja": "蕨",
    "name:ja_kana": "わらび",
    "name:ja_rm": "Warabi",
    "name:ko": "와라비",
    "name:ru": "Вараби",
    "operator": "東日本旅客鉄道",
    "public_transport": "station",
    "railway": "station",
    "wikidata": "Q786349",
    "wikipedia": "ja:蕨駅"
  }
},
{
  "type": "node",
  "id": 244878189,
  "lat": 35.8721323,
  "lon": 139.6460774,
  "tags": {
    "name": "北浦和",
    "name:en": "Kita-Urawa",
    "name:ja": "北浦和",
    "name:ja_kana": "きたうらわ",
    "name:ja_rm": "Kita Urawa",
    "name:ko": "기타우라와",
    "name:ru": "Кита-Урава",
    "operator": "東日本旅客鉄道",
    "public_transport": "station",
    "railway": "station",
    "wikidata": "Q801021",
    "wikipedia": "ja:北浦和駅"
  }
},
{
  "type": "node",
  "id": 244878195,
  "lat": 35.8843429,
  "lon": 139.6390018,
  "tags": {
    "name": "与野",
    "name:en": "Yono",
    "name:ja": "与野",
    "name:ja_kana": "よの",
    "name:ja_rm": "Yono",
    "name:ko": "요노",
    "name:ru": "Йоно",
    "operator": "東日本旅客鉄道",
    "public_transport": "station",
    "railway": "station",
    "wikidata": "Q801652",
    "wikipedia": "ja:与野駅"
  }
},
{
  "type": "node",
  "id": 244878198,
  "lat": 35.8936374,
  "lon": 139.6339481,
  "tags": {
    "name": "さいたま新都心",
    "name:de": "Saitama-Shintoshin",
    "name:en": "Saitama-Shintoshin",
    "name:ja": "さいたま新都心",
    "name:ja_kana": "さいたましんとしん",
    "name:ja_rm": "Saitama shintoshin",
    "name:ko": "사이타마신토신",
    "name:ru": "Сайтама-Синтосин",
    "operator": "東日本旅客鉄道",
    "platforms": "1",
    "public_transport": "station",
    "railway": "station",
    "wheelchair": "yes",
    "wikidata": "Q801393",
    "wikipedia": "ja:さいたま新都心駅"
  }
},
{
  "type": "node",
  "id": 251465504,
  "lat": 35.6722954,
  "lon": 139.7951358,
  "tags": {
    "name": "門前仲町",
    "name:en": "Monzen-nakacho",
    "name:es": "Monzen-nakacho",
    "name:ja": "門前仲町",
    "name:ja_kana": "もんぜんなかちょう",
    "name:ja_rm": "Monzen Nakachō",
    "name:ko": "몬젠나카초 역",
    "name:ru": "Мондзен-Накатё",
    "name:zh": "門前仲町站",
    "operator": "東京地下鉄",
    "platforms": "2",
    "public_transport": "station",
    "railway": "station",
    "ref": "T12",
    "station": "subway",
    "wikidata": "Q80576",
    "wikipedia": "ja:門前仲町駅"
  }
},
{
  "type": "node",
  "id": 251510846,
  "lat": 35.9501713,
  "lon": 139.6930315,
  "tags": {
    "name": "岩槻",
    "name:en": "Iwatsuki",
    "name:ja": "岩槻",
    "name:ja_rm": "Iwatsuki",
    "name:ko": "이와쓰키",
    "public_transport": "station",
    "railway": "station",
    "ref": "TD06",
    "source": "Bing",
    "wikidata": "Q5368936",
    "wikipedia": "ja:岩槻駅"
  }
},
{
  "type": "node",
  "id": 251605702,
  "lat": 35.7946285,
  "lon": 139.5137843,
  "tags": {
    "name": "東所沢",
    "name:en": "Higashi-Tokorozawa",
    "name:ja": "東所沢",
    "name:ja_kana": "ひがしところざわ",
    "name:ja_rm": "Higashi Tokorozawa",
    "name:ko": "히가시토코로자와",
    "operator": "東日本旅客鉄道",
    "public_transport": "station",
    "railway": "station",
    "wikidata": "Q5753886",
    "wikipedia": "ja:東所沢駅"
  }
},
{
  "type": "node",
  "id": 251723450,
  "lat": 35.8508764,
  "lon": 139.9010810,
  "tags": {
    "name": "平和台",
    "name:en": "Heiwadai",
    "name:ja": "平和台",
    "name:ja_kana": "へいわだい",
    "name:ja_rm": "Heiwadai",
    "name:ko": "헤이와다이",
    "operator": "流鉄",
    "platforms": "1",
    "public_transport": "station",
    "railway": "station",
    "source": "bing; GSI/KIBAN 2500; NARO",
    "wikidata": "Q11482225",
    "wikipedia": "ja:平和台駅 (千葉県)"
  }
},
{
  "type": "node",
  "id": 260428192,
  "lat": 36.0027089,
  "lon": 139.3977615,
  "tags": {
    "name": "高坂",
    "name:en": "Takasaka",
    "name:ja": "高坂",
    "name:ja_kana": "たかさか",
    "name:ja_rm": "Takasaka",
    "name:ko": "다카사카",
    "name:ru": "Такасака",
    "operator": "東武鉄道",
    "public_transport": "station",
    "railway": "station",
    "ref": "TJ28",
    "train": "yes",
    "wikidata": "Q7677290",
    "wikipedia": "ja:高坂駅"
  }
},
{
  "type": "node",
  "id": 260428235,
  "lat": 35.9491214,
  "lon": 139.4087459,
  "tags": {
    "name": "若葉",
    "name:en": "Wakaba",
    "name:ja": "若葉",
    "name:ja_kana": "わかば",
    "name:ja_rm": "Wakaba",
    "name:ko": "와카바",
    "name:ru": "Вакаба",
    "operator": "東武鉄道",
    "public_transport": "station",
    "railway": "station",
    "ref": "TJ25",
    "train": "yes",
    "wikidata": "Q7960744",
    "wikipedia": "ja:若葉駅"
  }
},
{
  "type": "node",
  "id": 260428239,
  "lat": 35.9256008,
  "lon": 139.4433959,
  "tags": {
    "name": "霞ヶ関",
    "name:en": "Kasumigaseki",
    "name:ja": "霞ヶ関",
    "name:ja_kana": "かすみがせき",
    "name:ja_rm": "Kasumigaseki",
    "name:ko": "가스미가세키",
    "name:ru": "Касумигасэки",
    "operator": "東武鉄道",
    "public_transport": "station",
    "railway": "station",
    "ref": "TJ23",
    "train": "yes",
    "wikidata": "Q5614472",
    "wikipedia": "ja:霞ヶ関駅 (埼玉県)"
  }
},
{
  "type": "node",
  "id": 262449251,
  "lat": 35.6469725,
  "lon": 139.7086709,
  "tags": {
    "colour": "gray",
    "name": "恵比寿",
    "name:en": "Ebisu",
    "name:es": "Ebisu",
    "name:fr": "Ebisu",
    "name:ja": "恵比寿",
    "name:ja_kana": "えびす",
    "name:ja_rm": "Ebisu",
    "name:ko": "에비스",
    "name:ru": "Эбису",
    "network": "日比谷線",
    "operator": "東京地下鉄",
    "public_transport": "station",
    "railway": "station",
    "ref": "H02",
    "station": "subway",
    "subway": "yes",
    "wikidata": "Q800715",
    "wikipedia": "ja:恵比寿駅"
  }
},
{
  "type": "node",
  "id": 263171062,
  "lat": 36.5789854,
  "lon": 140.3743878,
  "tags": {
    "name": "玉川村",
    "name:en": "Tamagawamura",
    "name:ja-Hira": "たまがわむら",
    "name:ja-Latn": "Tamagawamura",
    "public_transport": "station",
    "railway": "station",
    "source": "KSJ2",
    "train": "yes",
    "wikidata": "Q7680541",
    "wikipedia": "ja:玉川村駅"
  }
},
{
  "type": "node",
  "id": 263260753,
  "lat": 35.3062604,
  "lon": 139.5101242,
  "tags": {
    "name": "七里ヶ浜",
    "name:en": "Shichirigahama",
    "name:ja": "七里ヶ浜",
    "name:ja_kana": "しちりがはま",
    "name:ja_rm": "Shichirigahama",
    "name:ko": "시치리가하마",
    "name:zh": "七里濱",
    "operator": "江ノ島電鉄",
    "public_transport": "station",
    "railway": "station",
    "ref": "EN09",
    "source": "KSJ2",
    "wikidata": "Q858960",
    "wikipedia": "ja:七里ヶ浜駅"
  }
},
{
  "type": "node",
  "id": 263260766,
  "lat": 35.3128208,
  "lon": 139.5414100,
  "tags": {
    "name": "由比ヶ浜",
    "name:en": "Yuigahama",
    "name:ja": "由比ヶ浜",
    "name:ja_kana": "ゆいがはま",
    "name:ja_rm": "Yuigahama",
    "name:ko": "유이가하마",
    "name:zh": "由比濱",
    "operator": "江ノ島電鉄",
    "public_transport": "station",
    "railway": "station",
    "ref": "EN13",
    "source": "KSJ2",
    "source_ref": "http://nlftp.mlit.go.jp/ksj/jpgis/datalist/KsjTmplt-N02-v1_1.html",
    "wikidata": "Q859070",
    "wikipedia": "ja:由比ヶ浜駅"
  }
},
{
  "type": "node",
  "id": 263260767,
  "lat": 35.3110452,
  "lon": 139.4875483,
  "tags": {
    "name": "江ノ島",
    "name:en": "Enoshima",
    "name:ja": "江ノ島",
    "name:ja_kana": "えのしま",
    "name:ja_rm": "Enoshima",
    "name:ko": "에노시마",
    "name:zh": "江之島",
    "operator": "江ノ島電鉄",
    "public_transport": "station",
    "railway": "station",
    "ref": "EN06",
    "source": "KSJ2",
    "wikidata": "Q846972",
    "wikipedia": "ja:江ノ島駅"
  }
},
{
  "type": "node",
  "id": 263260771,
  "lat": 35.3083559,
  "lon": 139.4931919,
  "tags": {
    "name": "腰越",
    "name:en": "Koshigoe",
    "name:ja": "腰越",
    "name:ja_kana": "こしごえ",
    "name:ja_rm": "Koshigoe",
    "name:ko": "고시고에",
    "name:zh": "腰越",
    "operator": "江ノ島電鉄",
    "public_transport": "station",
    "railway": "station",
    "ref": "EN07",
    "source": "KSJ2",
    "wikidata": "Q858923",
    "wikipedia": "ja:腰越駅"
  }
},
{
  "type": "node",
  "id": 263260790,
  "lat": 35.3093646,
  "lon": 139.5287947,
  "tags": {
    "KSJ2:LIN": "江ノ島電鉄線",
    "name": "極楽寺",
    "name:en": "Gokurakuji",
    "name:ja": "極楽寺",
    "name:ja_kana": "ごくらくじ",
    "name:ja_rm": "Gokurakuji",
    "name:ko": "고쿠라쿠지",
    "name:zh": "極樂寺",
    "note": "National-Land Numerical Information (Railway) 2007, MLIT Japan",
    "note:ja": "国土数値情報（鉄道データ）平成19年　国土交通省",
    "operator": "江ノ島電鉄",
    "public_transport": "station",
    "railway": "station",
    "ref": "EN11",
    "source": "KSJ2",
    "source_ref": "http://nlftp.mlit.go.jp/ksj/jpgis/datalist/KsjTmplt-N02-v1_1.html",
    "wikidata": "Q858997",
    "wikipedia": "ja:極楽寺駅"
  }
},
{
  "type": "node",
  "id": 263260793,
  "lat": 35.3371923,
  "lon": 139.4871978,
  "tags": {
    "KSJ2:LIN": "江ノ島電鉄線",
    "name": "藤沢",
    "name:en": "Fujisawa",
    "name:ja": "藤沢",
    "name:ja-Hira": "ふじさわ",
    "name:ja-Latn": "Fujisawa",
    "name:ko": "후지사와",
    "name:ru": "Фудзисава",
    "name:zh": "藤澤",
    "note": "National-Land Numerical Information (Railway) 2007, MLIT Japan",
    "note:ja": "国土数値情報（鉄道データ）平成19年　国土交通省",
    "operator": "江ノ島電鉄",
    "public_transport": "station",
    "railway": "station",
    "ref": "EN01",
    "source": "KSJ2",
    "source_ref": "http://nlftp.mlit.go.jp/ksj/jpgis/datalist/KsjTmplt-N02-v1_1.html",
    "wikidata": "Q1133110",
    "wikipedia": "ja:藤沢駅"
  }
},
{
  "type": "node",
  "id": 263260869,
  "lat": 35.3327660,
  "lon": 139.4856490,
  "tags": {
    "KSJ2:LIN": "江ノ島電鉄線",
    "name": "石上",
    "name:en": "Ishigami",
    "name:ja": "石上",
    "name:ja_kana": "いしがみ",
    "name:ja_rm": "Ishigami",
    "name:ko": "이시가미",
    "name:zh": "石上",
    "note": "National-Land Numerical Information (Railway) 2007, MLIT Japan",
    "note:ja": "国土数値情報（鉄道データ）平成19年　国土交通省",
    "operator": "江ノ島電鉄",
    "public_transport": "station",
    "railway": "station",
    "ref": "EN02",
    "source": "KSJ2",
    "source_ref": "http://nlftp.mlit.go.jp/ksj/jpgis/datalist/KsjTmplt-N02-v1_1.html",
    "wikidata": "Q859782",
    "wikipedia": "ja:石上駅"
  }
},
{
  "type": "node",
  "id": 263260870,
  "lat": 35.3042613,
  "lon": 139.5219452,
  "tags": {
    "KSJ2:LIN": "江ノ島電鉄線",
    "name": "稲村ヶ崎",
    "name:en": "Inamuragasaki",
    "name:ja": "稲村ヶ崎",
    "name:ja_kana": "いなむらがさき",
    "name:ja_rm": "Inamuragasaki",
    "name:ko": "이나무라가사키",
    "name:zh": "稻村崎",
    "note": "National-Land Numerical Information (Railway) 2007, MLIT Japan",
    "note:ja": "国土数値情報（鉄道データ）平成19年　国土交通省",
    "operator": "江ノ島電鉄",
    "public_transport": "station",
    "railway": "station",
    "ref": "EN10",
    "source": "KSJ2",
    "source_ref": "http://nlftp.mlit.go.jp/ksj/jpgis/datalist/KsjTmplt-N02-v1_1.html",
    "wikidata": "Q858991",
    "wikipedia": "ja:稲村ヶ崎駅"
  }
},
{
  "type": "node",
  "id": 263260871,
  "lat": 35.3112368,
  "lon": 139.5360490,
  "tags": {
    "name": "長谷",
    "name:en": "Hase",
    "name:es": "Hase",
    "name:ja": "長谷",
    "name:ja_kana": "はせ",
    "name:ja_rm": "Hase",
    "name:ko": "하세",
    "name:zh": "長谷 (神奈川縣)",
    "operator": "江ノ島電鉄",
    "public_transport": "station",
    "railway": "station",
    "ref": "EN12",
    "source": "KSJ2",
    "source_ref": "http://nlftp.mlit.go.jp/ksj/jpgis/datalist/KsjTmplt-N02-v1_1.html",
    "train": "yes",
    "wikidata": "Q858830",
    "wikipedia": "ja:長谷駅 (神奈川県)"
  }
},
{
  "type": "node",
  "id": 263260932,
  "lat": 35.3137453,
  "lon": 139.5454869,
  "tags": {
    "name": "和田塚",
    "name:en": "Wadazuka",
    "name:ja": "和田塚",
    "name:ja_kana": "わだづか",
    "name:ja_rm": "Wadazuka",
    "name:ko": "와다즈카",
    "name:zh": "和田塚",
    "operator": "江ノ島電鉄",
    "public_transport": "station",
    "railway": "station",
    "ref": "EN14",
    "source": "KSJ2",
    "source_ref": "http://nlftp.mlit.go.jp/ksj/jpgis/datalist/KsjTmplt-N02-v1_1.html",
    "train": "yes",
    "wikidata": "Q858969",
    "wikipedia": "ja:和田塚駅"
  }
},
{
  "type": "node",
  "id": 263260958,
  "lat": 35.3066899,
  "lon": 139.5007137,
  "tags": {
    "alt_name:ko": "가마쿠라코코마에",
    "name": "鎌倉高校前",
    "name:en": "Kamakurakokomae",
    "name:ja": "鎌倉高校前",
    "name:ja_kana": "かまくらこうこうまえ",
    "name:ja_rm": "Kamakura kōkō mae",
    "name:ko": "가마쿠라고교앞",
    "name:zh": "鎌倉高校前",
    "operator": "江ノ島電鉄",
    "public_transport": "station",
    "railway": "station",
    "ref": "EN08",
    "source": "KSJ2",
    "wikidata": "Q859202",
    "wikipedia": "ja:鎌倉高校前駅"
  }
},
{
  "type": "node",
  "id": 263260973,
  "lat": 35.3275267,
  "lon": 139.4852039,
  "tags": {
    "KSJ2:LIN": "江ノ島電鉄線",
    "name": "柳小路",
    "name:en": "Yanagikoji",
    "name:ja": "柳小路",
    "name:ja_kana": "やなぎこうじ",
    "name:ja_rm": "Yanagikōji",
    "name:ko": "야나기코지",
    "name:zh": "柳小路",
    "note": "National-Land Numerical Information (Railway) 2007, MLIT Japan",
    "note:ja": "国土数値情報（鉄道データ）平成19年　国土交通省",
    "operator": "江ノ島電鉄",
    "public_transport": "station",
    "railway": "station",
    "ref": "EN03",
    "source": "KSJ2",
    "source_ref": "http://nlftp.mlit.go.jp/ksj/jpgis/datalist/KsjTmplt-N02-v1_1.html",
    "wikidata": "Q859740",
    "wikipedia": "ja:柳小路駅"
  }
},
{
  "type": "node",
  "id": 263261015,
  "lat": 35.3211332,
  "lon": 139.4825500,
  "tags": {
    "name": "鵠沼",
    "name:en": "Kugenuma",
    "name:ja": "鵠沼",
    "name:ja_kana": "くげぬま",
    "name:ja_rm": "Kugenuma",
    "name:ko": "구게누마",
    "name:zh": "鵠沼",
    "operator": "江ノ島電鉄",
    "public_transport": "station",
    "railway": "station",
    "ref": "EN04",
    "source": "KSJ2",
    "wikidata": "Q858839",
    "wikipedia": "ja:鵠沼駅"
  }
},
{
  "type": "node",
  "id": 263261069,
  "lat": 35.3150452,
  "lon": 139.4835077,
  "tags": {
    "name": "湘南海岸公園",
    "name:en": "Shonankaigankoen",
    "name:ja": "湘南海岸公園",
    "name:ja_kana": "しょうなんかいがんこうえん",
    "name:ja_rm": "Shōnan kaigan kōen",
    "name:ko": "쇼난해안공원",
    "name:zh": "湘南海岸公園",
    "operator": "江ノ島電鉄",
    "public_transport": "station",
    "railway": "station",
    "ref": "EN05",
    "source": "KSJ2",
    "wikidata": "Q858964",
    "wikipedia": "ja:湘南海岸公園駅"
  }
},
{
  "type": "node",
  "id": 263261171,
  "lat": 35.3182968,
  "lon": 139.5501569,
  "tags": {
    "name": "鎌倉",
    "name:en": "Kamakura",
    "name:es": "Kamakura Enoden",
    "name:ja": "鎌倉",
    "name:ja_kana": "かまくら",
    "name:ja_rm": "Kamakura",
    "name:ko": "가마쿠라",
    "name:zh": "镰仓",
    "operator": "江ノ島電鉄",
    "public_transport": "station",
    "railway": "station",
    "ref": "EN15",
    "source": "KSJ2",
    "source_ref": "http://nlftp.mlit.go.jp/ksj/jpgis/datalist/KsjTmplt-N02-v1_1.html",
    "train": "yes",
    "wikidata": "Q932895",
    "wikipedia": "ja:鎌倉駅"
  }
},
{
  "type": "node",
  "id": 263262699,
  "lat": 35.3193864,
  "lon": 139.5042366,
  "tags": {
    "monorail": "yes",
    "name": "西鎌倉",
    "name:en": "Nishikamakura",
    "name:ja": "西鎌倉",
    "name:ja_kana": "にしかまくら",
    "name:ja_rm": "Nishi Kamakura",
    "name:ko": "니시카마쿠라",
    "operator": "湘南モノレール",
    "public_transport": "stop_position",
    "railway": "station",
    "source": "KSJ2",
    "station": "monorail",
    "wikidata": "Q1094928",
    "wikipedia": "ja:西鎌倉駅"
  }
},
{
  "type": "node",
  "id": 263262703,
  "lat": 35.3172849,
  "lon": 139.4962355,
  "tags": {
    "monorail": "yes",
    "name": "片瀬山",
    "name:en": "Kataseyama",
    "name:ja": "片瀬山",
    "name:ja_kana": "かたせやま",
    "name:ja_rm": "Kataseyama",
    "name:ko": "가타세야마",
    "operator": "湘南モノレール",
    "public_transport": "stop_position",
    "railway": "station",
    "source": "KSJ2",
    "station": "monorail",
    "wikidata": "Q4251612",
    "wikipedia": "ja:片瀬山駅"
  }
},
{
  "type": "node",
  "id": 263262803,
  "lat": 35.3327758,
  "lon": 139.5187146,
  "tags": {
    "KSJ2:LIN": "江の島線",
    "monorail": "yes",
    "name": "湘南深沢",
    "name:en": "Shonan-Fukasawa",
    "name:ja": "湘南深沢",
    "name:ja_kana": "しょうなんふかさわ",
    "name:ja_rm": "Shōnan Fukasawa",
    "name:ko": "쇼난후카사와",
    "note": "National-Land Numerical Information (Railway) 2007, MLIT Japan",
    "note:ja": "国土数値情報（鉄道データ）平成19年　国土交通省",
    "operator": "湘南モノレール",
    "public_transport": "stop_position",
    "railway": "station",
    "source": "KSJ2",
    "source_ref": "http://nlftp.mlit.go.jp/ksj/jpgis/datalist/KsjTmplt-N02-v1_1.html",
    "station": "monorail",
    "wikidata": "Q1094911",
    "wikipedia": "ja:湘南深沢駅"
  }
},
{
  "type": "node",
  "id": 263262808,
  "lat": 35.3119174,
  "lon": 139.4879018,
  "tags": {
    "monorail": "yes",
    "name": "湘南江の島",
    "name:en": "Shonan-Enoshima",
    "name:es": "Shonan-Enoshima",
    "name:ja": "湘南江の島",
    "name:ja_kana": "しょうなんえのしま",
    "name:ja_rm": "Shōnan Enoshima",
    "name:ko": "쇼난에노시마",
    "operator": "湘南モノレール",
    "public_transport": "stop_position",
    "railway": "station",
    "source": "KSJ2",
    "station": "monorail",
    "wikidata": "Q1058486",
    "wikipedia": "ja:湘南江の島駅"
  }
},
{
  "type": "node",
  "id": 263266186,
  "lat": 35.2570413,
  "lon": 139.6611966,
  "tags": {
    "KSJ2:LIN": "横須賀線",
    "name": "衣笠",
    "name:en": "Kinugasa",
    "name:ja": "衣笠",
    "name:ja_kana": "きぬがさ",
    "name:ja_rm": "Kinugasa",
    "name:ko": "기누가사",
    "note": "National-Land Numerical Information (Railway) 2007, MLIT Japan",
    "note:ja": "国土数値情報（鉄道データ）平成19年　国土交通省",
    "operator": "東日本旅客鉄道",
    "public_transport": "station",
    "railway": "station",
    "source": "KSJ2",
    "source_ref": "http://nlftp.mlit.go.jp/ksj/jpgis/datalist/KsjTmplt-N02-v1_1.html",
    "wikidata": "Q844272",
    "wikipedia": "ja:衣笠駅"
  }
},
{
  "type": "node",
  "id": 263266195,
  "lat": 35.2326377,
  "lon": 139.7010655,
  "tags": {
    "KSJ2:LIN": "横須賀線",
    "name": "久里浜",
    "name:en": "Kurihama",
    "name:ja": "久里浜",
    "name:ja_kana": "くりはま",
    "name:ja_rm": "Kurihama",
    "name:ko": "구리하마",
    "note": "National-Land Numerical Information (Railway) 2007, MLIT Japan",
    "note:ja": "国土数値情報（鉄道データ）平成19年　国土交通省",
    "operator": "東日本旅客鉄道",
    "public_transport": "station",
    "railway": "station",
    "source": "KSJ2",
    "source_ref": "http://nlftp.mlit.go.jp/ksj/jpgis/datalist/KsjTmplt-N02-v1_1.html",
    "wikidata": "Q844268",
    "wikipedia": "ja:久里浜駅"
  }
},
{
  "type": "node",
  "id": 263266234,
  "lat": 35.2840068,
  "lon": 139.6556386,
  "tags": {
    "name": "横須賀",
    "name:en": "Yokosuka",
    "name:ja": "横須賀",
    "name:ja_kana": "よこすか",
    "name:ja_rm": "Yokosuka",
    "name:ko": "요코스카",
    "operator": "東日本旅客鉄道",
    "public_transport": "station",
    "railway": "station",
    "source": "KSJ2",
    "source_ref": "http://nlftp.mlit.go.jp/ksj/jpgis/datalist/KsjTmplt-N02-v1_1.html",
    "wikidata": "Q844320",
    "wikipedia": "ja:横須賀駅"
  }
},
{
  "type": "node",
  "id": 263266685,
  "lat": 35.2988417,
  "lon": 139.6014075,
  "tags": {
    "name": "東逗子",
    "name:en": "Higashi-Zushi",
    "name:ja": "東逗子",
    "name:ja_kana": "ひがしずし",
    "name:ja_rm": "Higashi Zushi",
    "name:ko": "히가시즈시",
    "operator": "東日本旅客鉄道",
    "public_transport": "station",
    "railway": "station",
    "source": "KSJ2",
    "source_ref": "http://nlftp.mlit.go.jp/ksj/jpgis/datalist/KsjTmplt-N02-v1_1.html",
    "wikidata": "Q844310",
    "wikipedia": "ja:東逗子駅"
  }
},
{
  "type": "node",
  "id": 263266941,
  "lat": 35.2928548,
  "lon": 139.6369531,
  "tags": {
    "name": "田浦",
    "name:en": "Taura",
    "name:ja": "田浦",
    "name:ja_kana": "たうら",
    "name:ja_rm": "Taura",
    "name:ko": "다우라",
    "operator": "東日本旅客鉄道",
    "public_transport": "station",
    "railway": "station",
    "source": "KSJ2",
    "source_ref": "http://nlftp.mlit.go.jp/ksj/jpgis/datalist/KsjTmplt-N02-v1_1.html",
    "wikidata": "Q844260",
    "wikipedia": "ja:田浦駅"
  }
},
{
  "type": "node",
  "id": 263267124,
  "lat": 35.3375863,
  "lon": 139.5449634,
  "tags": {
    "addr:city": "Kamakura",
    "name": "北鎌倉",
    "name:en": "Kita-Kamakura",
    "name:es": "Kita-Kamakura",
    "name:ja": "北鎌倉",
    "name:ja_kana": "きたかまくら",
    "name:ja_rm": "Kita Kamakura",
    "name:ko": "기타카마쿠라",
    "operator": "東日本旅客鉄道",
    "public_transport": "stop_position",
    "railway": "station",
    "source": "KSJ2",
    "source_ref": "http://nlftp.mlit.go.jp/ksj/jpgis/datalist/KsjTmplt-N02-v1_1.html",
    "train": "yes",
    "wikidata": "Q910286",
    "wikipedia": "ja:北鎌倉駅"
  }
},
{
  "type": "node",
  "id": 263267206,
  "lat": 35.3543087,
  "lon": 139.5314325,
  "tags": {
    "KSJ2:LIN": "横須賀線",
    "KSJ2:STN": "大船",
    "name": "大船",
    "name:de": "Ōfuna",
    "name:en": "Ofuna",
    "name:it": "Ofuna",
    "name:ja-Hira": "おおふな",
    "name:ja-Latn": "Ofuna",
    "name:ru": "Офуна",
    "public_transport": "station",
    "railway": "station",
    "railway:traffic_mode": "freight",
    "wikidata": "Q1143863",
    "wikipedia": "ja:大船駅"
  }
},
{
  "type": "node",
  "id": 263271174,
  "lat": 35.5500550,
  "lon": 139.7151970,
  "tags": {
    "gauge": "1435",
    "name": "雑色",
    "name:en": "Zoshiki",
    "name:ja": "雑色",
    "name:ja_kana": "ぞうしき",
    "name:ja_rm": "Zōshiki",
    "name:ko": "조시키",
    "note": "National-Land Numerical Information (Railway) 2007, MLIT Japan",
    "operator": "京浜急行電鉄 (Keikyu Corporation)",
    "operator:en": "Keikyu Corporation",
    "operator:ja": "京浜急行電鉄",
    "public_transport": "station",
    "railway": "station",
    "ref": "KK18",
    "source": "Bing",
    "source_ref": "http://nlftp.mlit.go.jp/ksj/jpgis/datalist/KsjTmplt-N02-v1_1.html",
    "wikidata": "Q8076244",
    "wikipedia": "ja:雑色駅"
  }
},
{
  "type": "node",
  "id": 263271899,
  "lat": 35.4846412,
  "lon": 139.6451432,
  "tags": {
    "gauge": "1435",
    "name": "子安",
    "name:en": "Koyasu",
    "name:es": "Koyasu",
    "name:ja": "子安",
    "name:ja_kana": "こやす",
    "name:ja_rm": "Koyasu",
    "name:ko": "고야스",
    "operator": "京浜急行電鉄",
    "operator:en": "Keikyu Corporation",
    "operator:ja": "京浜急行電鉄",
    "public_transport": "station",
    "railway": "station",
    "ref": "KK33",
    "source": "Bing",
    "source_ref": "http://nlftp.mlit.go.jp/ksj/jpgis/datalist/KsjTmplt-N02-v1_1.html",
    "wikidata": "Q6435147",
    "wikipedia": "ja:子安駅"
  }
},
{
  "type": "node",
  "id": 263274493,
  "lat": 35.4814731,
  "lon": 139.6400716,
  "tags": {
    "gauge": "1435",
    "name": "神奈川新町",
    "name:en": "Kanagawa-shimmachi",
    "name:ja": "神奈川新町",
    "name:ja_kana": "かながわしんまち",
    "name:ja_rm": "Kanagawa-shimmachi",
    "name:ko": "가나가와신마치",
    "note": "National-Land Numerical Information (Railway) 2007, MLIT Japan",
    "operator": "京浜急行電鉄 (Keikyu Corporation)",
    "operator:en": "Keikyu Corporation",
    "operator:ja": "京浜急行電鉄",
    "public_transport": "station",
    "railway": "station",
    "ref": "KK34",
    "source": "Bing",
    "source_ref": "http://nlftp.mlit.go.jp/ksj/jpgis/datalist/KsjTmplt-N02-v1_1.html",
    "wikidata": "Q5368901",
    "wikipedia": "ja:神奈川新町駅"
  }
},
{
  "type": "node",
  "id": 263274634,
  "lat": 35.4772681,
  "lon": 139.6345514,
  "tags": {
    "gauge": "1435",
    "name": "仲木戸",
    "name:en": "Nakakido",
    "name:ja": "仲木戸",
    "name:ja_kana": "なかきど",
    "name:ja_rm": "Nakakido",
    "name:ko": "나카키도",
    "operator": "京浜急行電鉄",
    "operator:en": "Keikyu Corporation",
    "operator:ja": "京浜急行電鉄",
    "public_transport": "station",
    "railway": "station",
    "ref": "KK35",
    "source": "Bing",
    "wikidata": "Q6960205",
    "wikipedia": "ja:仲木戸駅"
  }
},
{
  "type": "node",
  "id": 263274999,
  "lat": 35.4662499,
  "lon": 139.6232223,
  "tags": {
    "gauge": "1435",
    "name": "横浜",
    "name:en": "Yokohama",
    "name:ja": "横浜",
    "name:ja_kana": "よこはま",
    "name:ja_rm": "Yokohama",
    "name:ko": "요코하마",
    "note": "National-Land Numerical Information (Railway) 2007, MLIT Japan",
    "operator": "京浜急行電鉄",
    "operator:en": "Keikyu Corporation",
    "operator:ja": "京浜急行電鉄",
    "public_transport": "station",
    "railway": "station",
    "ref": "KK37",
    "source": "Bing",
    "source_ref": "http://nlftp.mlit.go.jp/ksj/jpgis/datalist/KsjTmplt-N02-v1_1.html",
    "wikidata": "Q801658",
    "wikipedia": "ja:横浜駅"
  }
},
{
  "type": "node",
  "id": 263275159,
  "lat": 35.4710257,
  "lon": 139.6271352,
  "tags": {
    "name": "神奈川",
    "name:en": "Kanagawa",
    "name:ja": "神奈川",
    "name:ja_kana": "かながわ",
    "name:ja_rm": "Kanagawa",
    "name:ko": "가나가와",
    "note": "National-Land Numerical Information (Railway) 2007, MLIT Japan",
    "railway": "station",
    "source": "KSJ2",
    "source_ref": "http://nlftp.mlit.go.jp/ksj/jpgis/datalist/KsjTmplt-N02-v1_1.html",
    "wheelchair": "limited",
    "wikidata": "Q5362069",
    "wikipedia": "ja:神奈川駅"
  }
},
{
  "type": "node",
  "id": 263294118,
  "lat": 35.5497830,
  "lon": 139.7859760,
  "tags": {
    "name": "羽田空港国内線ターミナル",
    "name:en": "Haneda Airport Domestic Terminal",
    "name:es": "Haneda Airport Domestic Terminal",
    "name:it": "Haneda Aeroporto Terminal domestico",
    "name:ja": "羽田空港国内線ターミナル",
    "name:ja-Hira": "はねだくうこうこくないせんたーみなる",
    "name:ja-Latn": "Haneda kūkō kokunaisen tāminaru",
    "name:ko": "하네다공항 국내선 터미널",
    "name:ru": "Терминал внутренних рейсов аэропорта Ханэда",
    "name:zh": "羽田机场国内线航站楼",
    "note": "National-Land Numerical Information (Railway) 2007, MLIT Japan",
    "note:ja": "国土数値情報（鉄道データ）平成19年　国土交通省",
    "operator": "京浜急行電鉄",
    "operator:en": "Keikyu Corporation",
    "operator:ja": "京浜急行電鉄",
    "public_transport": "station",
    "railway": "station",
    "ref": "KK17",
    "source": "Bing",
    "source_ref": "http://nlftp.mlit.go.jp/ksj/jpgis/datalist/KsjTmplt-N02-v1_1.html",
    "toilets:wheelchair": "yes",
    "train": "yes",
    "wheelchair": "yes",
    "wikidata": "Q906745",
    "wikipedia": "ja:羽田空港国内線ターミナル駅"
  }
},
{
  "type": "node",
  "id": 263294197,
  "lat": 35.5525614,
  "lon": 139.7393939,
  "tags": {
    "name": "大鳥居",
    "name:en": "Otorii",
    "name:es": "Otorii",
    "name:ja": "大鳥居",
    "name:ja_kana": "おおとりい",
    "name:ja_rm": "Ōtorii",
    "name:ko": "오토리이",
    "name:ru": "Отории",
    "note": "National-Land Numerical Information (Railway) 2007, MLIT Japan",
    "operator": "京浜急行電鉄",
    "operator:en": "Keikyu Corporation",
    "operator:ja": "京浜急行電鉄",
    "public_transport": "station",
    "railway": "station",
    "ref": "KK13",
    "source": "Bing",
    "source_ref": "http://nlftp.mlit.go.jp/ksj/jpgis/datalist/KsjTmplt-N02-v1_1.html",
    "train": "yes",
    "wikidata": "Q5362449",
    "wikipedia": "ja:大鳥居駅"
  }
},
{
  "type": "node",
  "id": 263294394,
  "lat": 35.5502972,
  "lon": 139.7467464,
  "tags": {
    "alt_name": "ヤマトグループ 羽田クロノゲート前",
    "name": "穴守稲荷",
    "name:en": "Anamori-Inari",
    "name:es": "Anamori-Inari",
    "name:ja": "穴守稲荷",
    "name:ja_kana": "あなもりいなり",
    "name:ja_rm": "Anamori inari",
    "name:ko": "아나모리이나리",
    "name:ru": "Анамори-Инари",
    "note": "National-Land Numerical Information (Railway) 2007, MLIT Japan",
    "operator": "京浜急行電鉄",
    "operator:en": "Keikyu Corporation",
    "operator:ja": "京浜急行電鉄",
    "public_transport": "station",
    "railway": "station",
    "ref": "KK14",
    "source": "Bing",
    "source_ref": "http://nlftp.mlit.go.jp/ksj/jpgis/datalist/KsjTmplt-N02-v1_1.html",
    "toilets:wheelchair": "yes",
    "wheelchair": "yes",
    "wikidata": "Q4751212",
    "wikipedia": "ja:穴守稲荷駅"
  }
},
{
  "type": "node",
  "id": 263294640,
  "lat": 35.5481370,
  "lon": 139.7546639,
  "tags": {
    "name": "天空橋",
    "name:en": "Tenkubashi",
    "name:es": "Tenkūbashi",
    "name:ja": "天空橋",
    "name:ja_kana": "てんくうばし",
    "name:ja_rm": "Tenkūbashi",
    "name:ko": "덴쿠바시",
    "name:ru": "Тэнкубаси",
    "note": "National-Land Numerical Information (Railway) 2007, MLIT Japan",
    "operator": "京浜急行電鉄 (Keikyu Corporation)",
    "operator:en": "Keikyu Corporation",
    "operator:ja": "京浜急行電鉄",
    "public_transport": "station",
    "railway": "station",
    "ref": "KK15",
    "source": "Bing",
    "source_ref": "http://nlftp.mlit.go.jp/ksj/jpgis/datalist/KsjTmplt-N02-v1_1.html",
    "wikidata": "Q5367248",
    "wikipedia": "ja:天空橋駅"
  }
},
{
  "type": "node",
  "id": 263297513,
  "lat": 35.2941815,
  "lon": 139.5803247,
  "tags": {
    "name": "新逗子",
    "name:en": "Shinzushi",
    "name:ja": "新逗子",
    "name:ja_kana": "しんずし",
    "name:ja_rm": "Shin Zushi",
    "name:ko": "신즈시",
    "operator": "京浜急行電鉄",
    "operator:en": "Keikyu Corporation",
    "operator:ja": "京浜急行電鉄",
    "public_transport": "station",
    "railway": "station",
    "ref": "KK53",
    "source": "Bing",
    "source_ref": "http://nlftp.mlit.go.jp/ksj/jpgis/datalist/KsjTmplt-N02-v1_1.html",
    "wikidata": "Q3266545",
    "wikipedia": "ja:新逗子駅"
  }
},
{
  "type": "node",
  "id": 263298016,
  "lat": 35.3064090,
  "lon": 139.5930867,
  "tags": {
    "name": "神武寺",
    "name:en": "Jimmuji",
    "name:ja": "神武寺",
    "name:ja_kana": "じんむじ",
    "name:ja_rm": "Jimmuji",
    "name:ko": "진무지",
    "operator": "京浜急行電鉄",
    "operator:en": "Keikyu Corporation",
    "operator:ja": "京浜急行電鉄",
    "public_transport": "station",
    "railway": "station",
    "ref": "KK52",
    "source": "Bing",
    "source_ref": "http://nlftp.mlit.go.jp/ksj/jpgis/datalist/KsjTmplt-N02-v1_1.html",
    "wikidata": "Q6199430",
    "wikipedia": "ja:神武寺駅"
  }
},
{
  "type": "node",
  "id": 263298361,
  "lat": 35.3226002,
  "lon": 139.6112694,
  "tags": {
    "name": "六浦",
    "name:en": "Mutsuura",
    "name:ja": "六浦",
    "name:ja_kana": "むつうら",
    "name:ja_rm": "Mutsuura",
    "name:ko": "무쓰우라",
    "operator": "京浜急行電鉄",
    "operator:en": "Keikyu Corporation",
    "operator:ja": "京浜急行電鉄",
    "public_transport": "station",
    "railway": "station",
    "ref": "KK51",
    "source": "Bing",
    "source_ref": "http://nlftp.mlit.go.jp/ksj/jpgis/datalist/KsjTmplt-N02-v1_1.html",
    "wikidata": "Q11312859",
    "wikipedia": "ja:六浦駅"
  }
},
{
  "type": "node",
  "id": 264184513,
  "lat": 36.2580020,
  "lon": 139.7611920,
  "tags": {
    "name": "間々田",
    "name:de": "Mamada",
    "name:en": "Mamada",
    "name:ja-Hira": "ままだ",
    "name:ja-Latn": "Mamada",
    "name:ru": "Мамада",
    "operator": "東日本旅客鉄道",
    "operator:en": "East Japan Railway Company",
    "public_transport": "station",
    "railway": "station",
    "source": "KSJ2",
    "train": "yes",
    "wikidata": "Q873320",
    "wikipedia": "ja:間々田駅"
  }
},
{
  "type": "node",
  "id": 264199875,
  "lat": 35.2801068,
  "lon": 139.1484713,
  "tags": {
    "name": "穴部",
    "name:en": "Anabe",
    "name:ja": "穴部",
    "name:ja_rm": "Anabe",
    "name:ko": "아나베",
    "note": "National-Land Numerical Information (Railway) 2007, MLIT Japan",
    "railway": "station",
    "ref": "ID05",
    "source": "KSJ2",
    "wikidata": "Q4750577",
    "wikipedia": "ja:穴部駅"
  }
},
{
  "type": "node",
  "id": 264199894,
  "lat": 35.3158517,
  "lon": 139.1180895,
  "tags": {
    "KSJ2:LIN": "大雄山線",
    "KSJ2:STN": "和田河原",
    "name": "和田河原",
    "name:en": "Wadagahara",
    "name:ja": "和田河原",
    "name:ja_rm": "Wadagahara",
    "name:ko": "와다가하라",
    "note": "National-Land Numerical Information (Railway) 2007, MLIT Japan",
    "note:ja": "国土数値情報（鉄道データ）平成19年　国土交通省",
    "railway": "station",
    "ref": "ID10",
    "source": "KSJ2",
    "source_ref": "http://nlftp.mlit.go.jp/ksj/jpgis/datalist/KsjTmplt-N02-v1_1.html",
    "wikidata": "Q254831",
    "wikipedia": "ja:和田河原駅"
  }
},
{
  "type": "node",
  "id": 264199904,
  "lat": 35.3176549,
  "lon": 139.1088944,
  "tags": {
    "KSJ2:LIN": "大雄山線",
    "KSJ2:STN": "富士フイルム前",
    "alt_name:ko": "후지필름마에",
    "name": "富士フイルム前",
    "name:en": "Fujifilm-mae",
    "name:ja": "富士フイルム前",
    "name:ja_rm": "Fujifilm-Mae",
    "name:ko": "후지필름앞",
    "note": "National-Land Numerical Information (Railway) 2007, MLIT Japan",
    "note:ja": "国土数値情報（鉄道データ）平成19年　国土交通省",
    "railway": "station",
    "ref": "ID11",
    "source": "KSJ2",
    "source_ref": "http://nlftp.mlit.go.jp/ksj/jpgis/datalist/KsjTmplt-N02-v1_1.html",
    "wikidata": "Q5507389",
    "wikipedia": "ja:富士フイルム前駅"
  }
},
{
  "type": "node",
  "id": 264199924,
  "lat": 35.2752447,
  "lon": 139.1558175,
  "tags": {
    "name": "五百羅漢",
    "name:en": "Gohyakurakan",
    "name:ja": "五百羅漢",
    "name:ja_rm": "Gohyakurakan",
    "name:ko": "고햐쿠라칸",
    "note": "National-Land Numerical Information (Railway) 2007, MLIT Japan",
    "railway": "station",
    "ref": "ID04",
    "source": "KSJ2",
    "wikidata": "Q5577610",
    "wikipedia": "ja:五百羅漢駅"
  }
},
{
  "type": "node",
  "id": 264199929,
  "lat": 35.2881339,
  "lon": 139.1390509,
  "tags": {
    "name": "飯田岡",
    "name:en": "Iidaoka",
    "name:ja": "飯田岡",
    "name:ja_rm": "Iidaoka",
    "name:ko": "이다오카",
    "note": "National-Land Numerical Information (Railway) 2007, MLIT Japan",
    "railway": "station",
    "ref": "ID06",
    "source": "KSJ2",
    "wikidata": "Q5994936",
    "wikipedia": "ja:飯田岡駅"
  }
},
{
  "type": "node",
  "id": 264199933,
  "lat": 35.2921114,
  "lon": 139.1339921,
  "tags": {
    "name": "相模沼田",
    "name:en": "Sagami-Numata",
    "name:ja": "相模沼田",
    "name:ja_rm": "Sagami-Numata",
    "name:ko": "사가미누마타",
    "note": "National-Land Numerical Information (Railway) 2007, MLIT Japan",
    "railway": "station",
    "ref": "ID07",
    "source": "KSJ2",
    "wikidata": "Q7398953",
    "wikipedia": "ja:相模沼田駅"
  }
},
{
  "type": "node",
  "id": 264199946,
  "lat": 35.3017259,
  "lon": 139.1263317,
  "tags": {
    "name": "塚原",
    "name:en": "Tsukahara",
    "name:ja": "塚原",
    "name:ja_rm": "Tsukahara",
    "name:ko": "쓰카하라",
    "note": "National-Land Numerical Information (Railway) 2007, MLIT Japan",
    "railway": "station",
    "ref": "ID09",
    "source": "KSJ2",
    "wikidata": "Q7850037",
    "wikipedia": "ja:塚原駅"
  }
},
{
  "type": "node",
  "id": 264199961,
  "lat": 35.2685194,
  "lon": 139.1572985,
  "tags": {
    "name": "井細田",
    "name:en": "Isaida",
    "name:ja": "井細田",
    "name:ja_rm": "Isaida",
    "name:ko": "이사이다",
    "note": "National-Land Numerical Information (Railway) 2007, MLIT Japan",
    "railway": "station",
    "ref": "ID03",
    "source": "KSJ2",
    "wikidata": "Q6078639",
    "wikipedia": "ja:井細田駅"
  }
},
{
  "type": "node",
  "id": 264199994,
  "lat": 35.3191857,
  "lon": 139.1031699,
  "tags": {
    "KSJ2:LIN": "大雄山線",
    "KSJ2:STN": "大雄山",
    "name": "大雄山",
    "name:en": "Daiyuzan",
    "name:ja": "大雄山",
    "name:ja_kana": "だいゆうざん",
    "name:ja_rm": "Daiyūzan",
    "name:ko": "다이유잔",
    "note": "National-Land Numerical Information (Railway) 2007, MLIT Japan",
    "note:ja": "国土数値情報（鉄道データ）平成19年　国土交通省",
    "railway": "station",
    "ref": "ID12",
    "source": "KSJ2",
    "source_ref": "http://nlftp.mlit.go.jp/ksj/jpgis/datalist/KsjTmplt-N02-v1_1.html",
    "wikidata": "Q5209846",
    "wikipedia": "ja:大雄山駅"
  }
},
{
  "type": "node",
  "id": 264199996,
  "lat": 35.2991273,
  "lon": 139.1284897,
  "tags": {
    "name": "岩原",
    "name:en": "Iwahara",
    "name:ja": "岩原",
    "name:ja_rm": "Iwahara",
    "name:ko": "이와하라",
    "note": "National-Land Numerical Information (Railway) 2007, MLIT Japan",
    "railway": "station",
    "ref": "ID08",
    "source": "KSJ2",
    "wikidata": "Q6100298",
    "wikipedia": "ja:岩原駅"
  }
},
{
  "type": "node",
  "id": 264200042,
  "lat": 35.2596033,
  "lon": 139.1589825,
  "tags": {
    "name": "緑町",
    "name:en": "Midoricho",
    "name:ja": "緑町",
    "name:ja_rm": "Midorichō",
    "name:ko": "미도리초",
    "railway": "station",
    "ref": "ID02",
    "source": "KSJ2",
    "wikidata": "Q11607855",
    "wikipedia": "ja:緑町駅"
  }
},
{
  "type": "node",
  "id": 264202566,
  "lat": 35.2451253,
  "lon": 139.1451655,
  "tags": {
    "name": "箱根板橋",
    "name:en": "Hakone-Itabashi",
    "name:ja": "箱根板橋",
    "name:ja_kana": "はこねいたばし",
    "name:ja_rm": "Hakone Itabashi",
    "name:ko": "하코네이타바시",
    "name:ru": "Хаконэ-Итабаси",
    "operator": "箱根登山鉄道",
    "public_transport": "station",
    "railway": "station",
    "ref": "OH48",
    "source": "KSJ2",
    "wikidata": "Q8281276",
    "wikipedia": "ja:箱根板橋駅"
  }
},
{
  "type": "node",
  "id": 264202587,
  "lat": 35.2466589,
  "lon": 139.0506265,
  "tags": {
    "name": "彫刻の森",
    "name:en": "Chokokunomori",
    "name:ja": "彫刻の森",
    "name:ja_kana": "ちょうこくのもり",
    "name:ja_rm": "Chōkoku no mori",
    "name:ko": "조코쿠노모리",
    "name:ru": "Тёкокуномори",
    "note": "National-Land Numerical Information (Railway) 2007, MLIT Japan",
    "operator": "箱根登山鉄道",
    "public_transport": "station",
    "railway": "station",
    "ref": "OH56",
    "source": "KSJ2",
    "source_ref": "http://nlftp.mlit.go.jp/ksj/jpgis/datalist/KsjTmplt-N02-v1_1.html",
    "train": "yes",
    "wikidata": "Q3096249",
    "wikipedia": "ja:彫刻の森駅"
  }
},
{
  "type": "node",
  "id": 264202697,
  "lat": 35.2345224,
  "lon": 139.0940123,
  "tags": {
    "name": "塔ノ沢",
    "name:en": "Tonosawa",
    "name:ja": "塔ノ沢",
    "name:ja_kana": "とうのさわ",
    "name:ja_rm": "Tōnosawa",
    "name:ko": "도노사와",
    "name:ru": "Тономсава",
    "note": "National-Land Numerical Information (Railway) 2007, MLIT Japan",
    "note:ja": "国土数値情報（鉄道データ）平成19年　国土交通省",
    "operator": "箱根登山鉄道",
    "public_transport": "station",
    "railway": "station",
    "ref": "OH52",
    "source": "KSJ2",
    "source_ref": "http://nlftp.mlit.go.jp/ksj/jpgis/datalist/KsjTmplt-N02-v1_1.html",
    "wikidata": "Q8189833",
    "wikipedia": "ja:塔ノ沢駅"
  }
},
{
  "type": "node",
  "id": 264202768,
  "lat": 35.2420482,
  "lon": 139.0630912,
  "tags": {
    "name": "宮ノ下",
    "name:en": "Miyanoshita",
    "name:ja": "宮ノ下",
    "name:ja_kana": "みやのした",
    "name:ja_rm": "Miyanoshita",
    "name:ko": "미야노시타",
    "name:ru": "Мияносита",
    "operator": "箱根登山鉄道",
    "public_transport": "station",
    "railway": "station",
    "ref": "OH54",
    "source": "KSJ2",
    "train": "yes",
    "wikidata": "Q997348",
    "wikipedia": "ja:宮ノ下駅"
  }
},
{
  "type": "node",
  "id": 264202860,
  "lat": 35.2408763,
  "lon": 139.1212800,
  "tags": {
    "name": "入生田",
    "name:en": "Iriuda",
    "name:ja": "入生田",
    "name:ja_kana": "いりうだ",
    "name:ja_rm": "Iriuda",
    "name:ko": "이리우다",
    "name:ru": "Ируида",
    "operator": "箱根登山鉄道",
    "public_transport": "station",
    "railway": "station",
    "ref": "OH50",
    "source": "KSJ2",
    "wikidata": "Q6071878",
    "wikipedia": "ja:入生田駅"
  }
},
{
  "type": "node",
  "id": 264203557,
  "lat": 35.2462385,
  "lon": 139.1292824,
  "tags": {
    "name": "風祭",
    "name:en": "Kazamatsuri",
    "name:ja": "風祭",
    "name:ja_kana": "かざまつり",
    "name:ja_rm": "Kazamatsuri",
    "name:ko": "가자마쓰리",
    "name:ru": "Кадзамацури",
    "operator": "箱根登山鉄道",
    "public_transport": "station",
    "railway": "station",
    "ref": "OH49",
    "source": "KSJ2",
    "wikidata": "Q6380859",
    "wikipedia": "ja:風祭駅"
  }
},
{
  "type": "node",
  "id": 264203598,
  "lat": 35.2405017,
  "lon": 139.0528058,
  "tags": {
    "name": "小涌谷",
    "name:en": "Kowakidani",
    "name:ja": "小涌谷",
    "name:ja_kana": "こわきだに",
    "name:ja_rm": "Kowakidani",
    "name:ko": "고와키다니",
    "name:ru": "Ковакидани",
    "note": "National-Land Numerical Information (Railway) 2007, MLIT Japan",
    "operator": "箱根登山鉄道",
    "public_transport": "station",
    "railway": "station",
    "ref": "OH55",
    "source": "KSJ2",
    "source_ref": "http://nlftp.mlit.go.jp/ksj/jpgis/datalist/KsjTmplt-N02-v1_1.html",
    "train": "yes",
    "wikidata": "Q994123",
    "wikipedia": "ja:小涌谷駅"
  }
},
{
  "type": "node",
  "id": 264205533,
  "lat": 35.2481695,
  "lon": 139.0406145,
  "tags": {
    "name": "中強羅",
    "name:en": "Naka-Gora",
    "name:ja": "中強羅",
    "name:ja_kana": "なかごうら",
    "name:ja_rm": "Naka Gōra",
    "name:ko": "나카고라",
    "note": "National-Land Numerical Information (Railway) 2007, MLIT Japan",
    "operator": "箱根登山鉄道",
    "public_transport": "station",
    "railway": "station",
    "ref": "OH60",
    "source": "KSJ2",
    "train": "yes",
    "wikidata": "Q6960082",
    "wikipedia": "ja:中強羅駅"
  }
},
{
  "type": "node",
  "id": 264205538,
  "lat": 35.2499531,
  "lon": 139.0457162,
  "tags": {
    "name": "公園下",
    "name:en": "Koen-Shimo",
    "name:ja": "公園下",
    "name:ja_kana": "こうえんしも",
    "name:ja_rm": "Kōen shimo",
    "name:ko": "고엔시모",
    "note": "National-Land Numerical Information (Railway) 2007, MLIT Japan",
    "operator": "箱根登山鉄道",
    "public_transport": "station",
    "railway": "station",
    "ref": "OH58",
    "source": "KSJ2",
    "source_ref": "http://nlftp.mlit.go.jp/ksj/jpgis/datalist/KsjTmplt-N02-v1_1.html",
    "train": "yes",
    "wikidata": "Q6455101",
    "wikipedia": "ja:公園下駅"
  }
},
{
  "type": "node",
  "id": 264205547,
  "lat": 35.2465132,
  "lon": 139.0359166,
  "tags": {
    "name": "早雲山",
    "name:en": "Sounzan",
    "name:ja": "早雲山",
    "name:ja_kana": "そううんざん",
    "name:ja_rm": "Sōunzan",
    "name:ko": "소운잔",
    "note": "National-Land Numerical Information (Railway) 2007, MLIT Japan",
    "operator": "箱根登山鉄道",
    "public_transport": "station",
    "railway": "station",
    "ref": "OH62",
    "source": "KSJ2",
    "train": "yes",
    "wikidata": "Q7667653",
    "wikipedia": "ja:早雲山駅"
  }
},
{
  "type": "node",
  "id": 264205549,
  "lat": 35.2473150,
  "lon": 139.0381248,
  "tags": {
    "name": "上強羅",
    "name:en": "Kami-Gora",
    "name:ja": "上強羅",
    "name:ja_kana": "かみごうら",
    "name:ja_rm": "Kami Gōra",
    "name:ko": "가미고라",
    "note": "National-Land Numerical Information (Railway) 2007, MLIT Japan",
    "operator": "箱根登山鉄道",
    "public_transport": "station",
    "railway": "station",
    "ref": "OH61",
    "source": "KSJ2",
    "train": "yes",
    "wikidata": "Q6357118",
    "wikipedia": "ja:上強羅駅"
  }
},
{
  "type": "node",
  "id": 264205739,
  "lat": 35.3574750,
  "lon": 139.1078960,
  "tags": {
    "name": "東山北",
    "name:en": "Higashi-Yamakita",
    "name:ja": "東山北",
    "name:ja_rm": "Higashi-Yamakita",
    "name:ko": "히가시야마키타",
    "railway": "station",
    "source": "KSJ2",
    "wikidata": "Q5357345",
    "wikipedia": "ja:東山北駅"
  }
},
{
  "type": "node",
  "id": 264205741,
  "lat": 35.3462965,
  "lon": 139.1385794,
  "tags": {
    "name": "松田",
    "name:en": "Matsuda",
    "name:ja": "松田",
    "name:ja_rm": "Matsuda",
    "name:ko": "마쓰다",
    "old_operator": "日本国有鉄道",
    "public_transport": "station",
    "railway": "station",
    "source": "KSJ2",
    "wikidata": "Q5357522",
    "wikipedia": "ja:松田駅"
  }
},
{
  "type": "node",
  "id": 264205745,
  "lat": 35.3222131,
  "lon": 139.1631386,
  "tags": {
    "name": "上大井",
    "name:en": "Kami-Oi",
    "name:ja": "上大井",
    "name:ja_rm": "Kami-Oi",
    "name:ko": "가미오이",
    "note": "National-Land Numerical Information (Railway) 2007, MLIT Japan",
    "railway": "station",
    "source": "KSJ2",
    "wikidata": "Q5357556",
    "wikipedia": "ja:上大井駅"
  }
},
{
  "type": "node",
  "id": 264205748,
  "lat": 35.3339116,
  "lon": 139.1504705,
  "tags": {
    "name": "相模金子",
    "name:en": "Sagami-Kaneko",
    "name:ja": "相模金子",
    "name:ja_rm": "Sagami-Kaneko",
    "name:ko": "사가미카네코",
    "note": "National-Land Numerical Information (Railway) 2007, MLIT Japan",
    "railway": "station",
    "source": "KSJ2",
    "wikidata": "Q5357284",
    "wikipedia": "ja:相模金子駅"
  }
},
{
  "type": "node",
  "id": 264205779,
  "lat": 35.3037793,
  "lon": 139.1831264,
  "tags": {
    "KSJ2:LIN": "御殿場線",
    "KSJ2:STN": "下曽我",
    "name": "下曽我",
    "name:en": "Shimo-Soga",
    "name:ja": "下曽我",
    "name:ja_rm": "Shimo-Soga",
    "name:ko": "시모소가",
    "note": "National-Land Numerical Information (Railway) 2007, MLIT Japan",
    "note:ja": "国土数値情報（鉄道データ）平成19年　国土交通省",
    "railway": "station",
    "source": "KSJ2",
    "source_ref": "http://nlftp.mlit.go.jp/ksj/jpgis/datalist/KsjTmplt-N02-v1_1.html",
    "wikidata": "Q5357301",
    "wikipedia": "ja:下曽我駅"
  }
},
{
  "type": "node",
  "id": 264206141,
  "lat": 35.3589024,
  "lon": 138.9986087,
  "tags": {
    "name": "駿河小山",
    "name:en": "Suruga-Oyama",
    "name:ja": "駿河小山",
    "name:ja_rm": "Suruga-Oyama",
    "name:ko": "스루가오야마",
    "railway": "station",
    "source": "KSJ2",
    "wikidata": "Q5357361",
    "wikipedia": "ja:駿河小山駅"
  }
},
{
  "type": "node",
  "id": 264206142,
  "lat": 35.2771258,
  "lon": 138.9255565,
  "tags": {
    "KSJ2:LIN": "御殿場線",
    "KSJ2:STN": "南御殿場",
    "name": "南御殿場",
    "name:en": "Minami-Gotemba",
    "name:ja": "南御殿場",
    "name:ja_rm": "Minami-Gotemba",
    "name:ko": "미나미고텐바",
    "note": "National-Land Numerical Information (Railway) 2007, MLIT Japan",
    "note:ja": "国土数値情報（鉄道データ）平成19年　国土交通省",
    "railway": "station",
    "source": "KSJ2",
    "source_ref": "http://nlftp.mlit.go.jp/ksj/jpgis/datalist/KsjTmplt-N02-v1_1.html",
    "wikidata": "Q5357375",
    "wikipedia": "ja:南御殿場駅"
  }
},
{
  "type": "node",
  "id": 264206192,
  "lat": 35.3662380,
  "lon": 139.0384410,
  "tags": {
    "name": "谷峨",
    "name:en": "Yaga",
    "name:ja": "谷峨",
    "name:ja_rm": "Yaga",
    "name:ko": "야가",
    "railway": "station",
    "source": "KSJ2",
    "wikidata": "Q5357267",
    "wikipedia": "ja:谷峨駅"
  }
},
{
  "type": "node",
  "id": 264206294,
  "lat": 35.2812792,
  "lon": 139.2142070,
  "tags": {
    "name": "国府津",
    "name:de": "Kōzu",
    "name:en": "Kōzu",
    "name:ja": "国府津",
    "name:ja_rm": "Kōzu",
    "name:ko": "고즈",
    "name:ru": "Коудзу",
    "public_transport": "station",
    "railway": "station",
    "railway:traffic_mode": "freight",
    "wikidata": "Q865280",
    "wikipedia": "ja:国府津駅"
  }
},
{
  "type": "node",
  "id": 264206552,
  "lat": 35.3607690,
  "lon": 139.0803209,
  "tags": {
    "name": "山北",
    "name:en": "Yamakita",
    "name:ja": "山北",
    "name:ja_rm": "Yamakita",
    "name:ko": "야마키타",
    "railway": "station",
    "source": "KSJ2",
    "wikidata": "Q5357538",
    "wikipedia": "ja:山北駅"
  }
},
{
  "type": "node",
  "id": 264206805,
  "lat": 35.2999851,
  "lon": 138.9341364,
  "tags": {
    "name": "御殿場",
    "name:en": "Gotemba",
    "name:ja": "御殿場",
    "name:ja_rm": "Gotemba",
    "name:ko": "고텐바",
    "public_transport": "stop_position",
    "railway": "station",
    "source": "KSJ2",
    "wikidata": "Q899797",
    "wikipedia": "ja:御殿場駅"
  }
},
{
  "type": "node",
  "id": 264207212,
  "lat": 35.2158420,
  "lon": 138.9192139,
  "tags": {
    "KSJ2:LIN": "御殿場線",
    "KSJ2:STN": "岩波",
    "name": "岩波",
    "name:en": "Iwananmi",
    "name:ja": "岩波",
    "name:ja_rm": "Iwanami",
    "name:ko": "이와나미",
    "note": "National-Land Numerical Information (Railway) 2007, MLIT Japan",
    "note:ja": "国土数値情報（鉄道データ）平成19年　国土交通省",
    "railway": "station",
    "source": "KSJ2",
    "source_ref": "http://nlftp.mlit.go.jp/ksj/jpgis/datalist/KsjTmplt-N02-v1_1.html",
    "wikidata": "Q5357457",
    "wikipedia": "ja:岩波駅"
  }
},
{
  "type": "node",
  "id": 264207228,
  "lat": 35.1717033,
  "lon": 138.9093991,
  "tags": {
    "KSJ2:LIN": "御殿場線",
    "KSJ2:STN": "裾野",
    "name": "裾野",
    "name:en": "Susono",
    "name:ja": "裾野",
    "name:ja_rm": "Susono",
    "name:ko": "스소노",
    "note": "National-Land Numerical Information (Railway) 2007, MLIT Japan",
    "note:ja": "国土数値情報（鉄道データ）平成19年　国土交通省",
    "railway": "station",
    "source": "KSJ2",
    "source_ref": "http://nlftp.mlit.go.jp/ksj/jpgis/datalist/KsjTmplt-N02-v1_1.html",
    "wikidata": "Q5357490",
    "wikipedia": "ja:裾野駅"
  }
},
{
  "type": "node",
  "id": 264207259,
  "lat": 35.1475105,
  "lon": 138.8993532,
  "tags": {
    "KSJ2:LIN": "御殿場線",
    "KSJ2:STN": "長泉なめり",
    "name": "長泉なめり",
    "name:en": "Nagaizumi-Nameri",
    "name:ja": "長泉なめり",
    "name:ja_rm": "Nagaizumi-Nameri",
    "name:ko": "나가이즈미나메리",
    "note": "National-Land Numerical Information (Railway) 2007, MLIT Japan",
    "note:ja": "国土数値情報（鉄道データ）平成19年　国土交通省",
    "railway": "station",
    "source": "KSJ2",
    "source_ref": "http://nlftp.mlit.go.jp/ksj/jpgis/datalist/KsjTmplt-N02-v1_1.html",
    "wikidata": "Q5357393",
    "wikipedia": "ja:長泉なめり駅"
  }
},
{
  "type": "node",
  "id": 264207674,
  "lat": 35.2548697,
  "lon": 138.9196832,
  "tags": {
    "KSJ2:LIN": "御殿場線",
    "KSJ2:STN": "富士岡",
    "name": "富士岡",
    "name:en": "Fujioka",
    "name:ja": "富士岡",
    "name:ja_rm": "Fujioka",
    "name:ko": "후지오카",
    "note": "National-Land Numerical Information (Railway) 2007, MLIT Japan",
    "note:ja": "国土数値情報（鉄道データ）平成19年　国土交通省",
    "railway": "station",
    "source": "KSJ2",
    "source_ref": "http://nlftp.mlit.go.jp/ksj/jpgis/datalist/KsjTmplt-N02-v1_1.html",
    "wikidata": "Q5357596",
    "wikipedia": "ja:富士岡駅"
  }
},
{
  "type": "node",
  "id": 264211486,
  "lat": 35.9062750,
  "lon": 139.6239147,
  "tags": {
    "highspeed": "yes",
    "name": "大宮",
    "name:de": "Omiya",
    "name:en": "Omiya",
    "name:ja-Hira": "おおみや",
    "name:ja-Latn": "Ōmiya",
    "name:ko": "오미야",
    "name:ru": "Омия",
    "public_transport": "station",
    "railway": "station",
    "ref": "TD01",
    "source": "KSJ2",
    "train": "yes",
    "wheelchair": "yes",
    "wikidata": "Q801692",
    "wikipedia": "ja:大宮駅 (埼玉県)"
  }
},
{
  "type": "node",
  "id": 264240005,
  "lat": 35.4899101,
  "lon": 139.4509709,
  "tags": {
    "name": "鶴間",
    "name:en": "Tsuruma",
    "name:ja": "鶴間",
    "name:ja_rm": "Tsuruma",
    "name:ko": "쓰루마",
    "name:ru": "Цурума",
    "railway": "station",
    "source": "KSJ2",
    "wheelchair": "yes",
    "wikidata": "Q4506209",
    "wikipedia": "ja:鶴間駅"
  }
},
{
  "type": "node",
  "id": 264240042,
  "lat": 35.4125496,
  "lon": 139.4654339,
  "tags": {
    "name": "長後",
    "name:en": "Chogo",
    "name:ja": "長後",
    "name:ja_rm": "Chōgo",
    "name:ko": "조고",
    "name:ru": "Тёго",
    "railway": "station",
    "source": "KSJ2",
    "wikidata": "Q4468045",
    "wikipedia": "ru:Тёго (станция)"
  }
},
{
  "type": "node",
  "id": 264240113,
  "lat": 35.5315819,
  "lon": 139.4373761,
  "tags": {
    "name": "相模大野",
    "name:en": "Sagami-Ono",
    "name:ja": "相模大野",
    "name:ja_kana": "さがみおおの",
    "name:ja_rm": "Sagami Ōno",
    "name:ko": "사가미오노",
    "name:ru": "Сагами-Оно",
    "name:zh": "相模大野站",
    "railway": "station",
    "ref": "OH28",
    "source": "KSJ2",
    "wheelchair": "yes",
    "wikidata": "Q1054659",
    "wikipedia": "ja:相模大野駅"
  }
},
{
  "type": "node",
  "id": 264240127,
  "lat": 35.4950019,
  "lon": 139.4483507,
  "tags": {
    "KSJ2:LIN": "江ノ島線",
    "KSJ2:STN": "南林間",
    "name": "南林間",
    "name:en": "Minami-Rinkan",
    "name:ja": "南林間",
    "name:ja_rm": "Minami-Rinkan",
    "name:ko": "미나미린칸",
    "note": "National-Land Numerical Information (Railway) 2007, MLIT Japan",
    "note:ja": "国土数値情報（鉄道データ）平成19年　国土交通省",
    "railway": "station",
    "source": "KSJ2",
    "source_ref": "http://nlftp.mlit.go.jp/ksj/jpgis/datalist/KsjTmplt-N02-v1_1.html",
    "wheelchair": "yes",
    "wikidata": "Q999127",
    "wikipedia": "ja:南林間駅"
  }
},
{
  "type": "node",
  "id": 264240207,
  "lat": 35.4505940,
  "lon": 139.4657575,
  "tags": {
    "name": "桜ヶ丘",
    "name:en": "Sakuragaoka",
    "name:ja": "桜ヶ丘",
    "name:ja_rm": "Sakuragaoka",
    "name:ko": "사쿠라가오카",
    "name:ru": "Сакурагаока",
    "railway": "station",
    "source": "KSJ2",
    "wheelchair": "yes",
    "wikidata": "Q4405554",
    "wikipedia": "ja:桜ヶ丘駅"
  }
},
{
  "type": "node",
  "id": 264240233,
  "lat": 35.3088730,
  "lon": 139.4835020,
  "tags": {
    "name": "片瀬江ノ島",
    "name:en": "Katase-Enoshima",
    "name:ja": "片瀬江ノ島",
    "name:ja_kana": "かたせえのしま",
    "name:ja_rm": "Katase Enoshima",
    "name:ko": "가타세에노시마",
    "name:ru": "Катасэ-Эносима",
    "name:zh": "片瀨江之島車站",
    "operator": "小田急電鉄",
    "public_transport": "station",
    "railway": "station",
    "ref": "OE16",
    "source": "KSJ2",
    "wikidata": "Q1058370",
    "wikipedia": "ja:片瀬江ノ島駅"
  }
},
{
  "type": "node",
  "id": 264240354,
  "lat": 35.3480296,
  "lon": 139.4761311,
  "tags": {
    "name": "藤沢本町",
    "name:en": "Fujisawa-Hommachi",
    "name:ja": "藤沢本町",
    "name:ja_rm": "Fujisawa-Honmachi",
    "name:ko": "후지사와혼마치",
    "name:ru": "Фудзисава-Хоммати",
    "railway": "station",
    "source": "KSJ2",
    "wikidata": "Q4493282",
    "wikipedia": "ja:藤沢本町駅"
  }
},
{
  "type": "node",
  "id": 264240356,
  "lat": 35.3208001,
  "lon": 139.4710923,
  "tags": {
    "KSJ2:LIN": "江ノ島線",
    "name": "鵠沼海岸",
    "name:en": "Kugenuma-Kaigan",
    "name:ja": "鵠沼海岸",
    "name:ja-Hira": "くげぬまかいがん",
    "name:ja-Latn": "Kugenuma kaigan",
    "name:ko": "쿠게누마 카이간",
    "name:ru": "Кугэнума-Кайган",
    "note": "National-Land Numerical Information (Railway) 2007, MLIT Japan",
    "note:ja": "国土数値情報（鉄道データ）平成19年　国土交通省",
    "operator": "小田急電鉄",
    "public_transport": "station",
    "railway": "station",
    "ref": "OE15",
    "source": "KSJ2",
    "source_ref": "http://nlftp.mlit.go.jp/ksj/jpgis/datalist/KsjTmplt-N02-v1_1.html",
    "wikidata": "Q4244329",
    "wikipedia": "ja:鵠沼海岸駅"
  }
},
{
  "type": "node",
  "id": 264240493,
  "lat": 35.4699728,
  "lon": 139.4613664,
  "tags": {
    "name": "大和",
    "name:de": "Yamato",
    "name:en": "Yamato",
    "name:ja": "大和",
    "name:ja_kana": "やまと",
    "name:ja_rm": "Yamato",
    "name:ko": "야마토 역",
    "name:ru": "Ямато",
    "name:zh": "大和站",
    "railway": "station",
    "source": "KSJ2",
    "wikidata": "Q1036368",
    "wikipedia": "ru:Ямато (станция, Канагава)"
  }
},
{
  "type": "node",
  "id": 264240614,
  "lat": 35.5202064,
  "lon": 139.4390406,
  "tags": {
    "name": "東林間",
    "name:en": "Higashi-Rinkan",
    "name:ja": "東林間",
    "name:ja_kana": "ひがしりんかん",
    "name:ja_rm": "Higashi Rinkan",
    "name:ko": "히가시린칸",
    "name:ru": "Хигаси-Ринкан",
    "operator": "小田急電鉄",
    "public_transport": "station",
    "railway": "station",
    "ref": "OE01",
    "source": "KSJ2",
    "wikidata": "Q4497459",
    "wikipedia": "ru:Хигаси-Ринкан (станция)"
  }
},
{
  "type": "node",
  "id": 264406055,
  "lat": 36.5520417,
  "lon": 140.6323850,
  "tags": {
    "name": "常陸多賀",
    "name:en": "Hitachi-Taga",
    "name:ja-Hira": "ひたちたが",
    "name:ja-Latn": "Hitachitaga",
    "public_transport": "station",
    "railway": "station",
    "source": "GSImaps/ort",
    "train": "yes",
    "wikidata": "Q40081",
    "wikipedia": "ja:常陸多賀駅"
  }
},
{
  "type": "node",
  "id": 264412395,
  "lat": 36.5709476,
  "lon": 139.7630742,
  "tags": {
    "name": "鹿沼",
    "name:en": "Kanuma",
    "name:ja": "鹿沼",
    "name:ja-Hira": "かぬま",
    "name:ja_rm": "Kanuma",
    "name:ko": "가누마",
    "note": "National-Land Numerical Information (Railway) 2007, MLIT Japan",
    "public_transport": "station",
    "railway": "station",
    "source": "KSJ2",
    "source_ref": "http://nlftp.mlit.go.jp/ksj/jpgis/datalist/KsjTmplt-N02-v1_1.html",
    "wikidata": "Q6365667",
    "wikipedia": "ja:鹿沼駅"
  }
},
{
  "type": "node",
  "id": 264412594,
  "lat": 36.3733104,
  "lon": 140.2460444,
  "tags": {
    "name": "笠間",
    "name:en": "Kasama",
    "name:ko": "가사마",
    "public_transport": "station",
    "railway": "station",
    "source": "KSJ2",
    "train": "yes",
    "wikidata": "Q6373988",
    "wikipedia": "ja:笠間駅"
  }
},
{
  "type": "node",
  "id": 264412596,
  "lat": 36.3686231,
  "lon": 140.2145322,
  "tags": {
    "name": "稲田",
    "name:en": "Inada",
    "name:ko": "이나다",
    "railway": "station",
    "source": "KSJ2",
    "train": "yes",
    "wikidata": "Q6013353",
    "wikipedia": "ja:稲田駅"
  }
},
{
  "type": "node",
  "id": 264412753,
  "lat": 36.3594365,
  "lon": 140.1082322,
  "tags": {
    "name": "岩瀬",
    "name:en": "Iwase",
    "name:ja-Hira": "いわせ",
    "name:ja-Latn": "Iwase",
    "name:ko": "이와세",
    "public_transport": "station",
    "railway": "station",
    "source": "KSJ2",
    "train": "yes",
    "wikidata": "Q6100731",
    "wikipedia": "ja:岩瀬駅"
  }
},
{
  "type": "node",
  "id": 264412876,
  "lat": 36.3282947,
  "lon": 140.0396924,
  "tags": {
    "name": "新治",
    "name:en": "Niihari",
    "name:ja-Hira": "にいはり",
    "name:ja-Latn": "Niihari",
    "name:ko": "니하리",
    "public_transport": "station",
    "railway": "station",
    "source": "KSJ2",
    "train": "yes",
    "wikidata": "Q7034411",
    "wikipedia": "ja:新治駅"
  }
},
{
  "type": "node",
  "id": 264413093,
  "lat": 36.3514905,
  "lon": 140.1871949,
  "tags": {
    "name": "福原",
    "name:en": "Fukuhara",
    "name:ja": "福原",
    "name:ja_rm": "Fukuhara",
    "name:ko": "후쿠하라",
    "note": "National-Land Numerical Information (Railway) 2007, MLIT Japan",
    "note:ja": "国土数値情報（鉄道データ）平成19年　国土交通省",
    "railway": "station",
    "source": "KSJ2",
    "source_ref": "http://nlftp.mlit.go.jp/ksj/jpgis/datalist/KsjTmplt-N02-v1_1.html",
    "wikidata": "Q5507632",
    "wikipedia": "ja:福原駅"
  }
},
{
  "type": "node",
  "id": 264413239,
  "lat": 36.3454853,
  "lon": 140.0730363,
  "tags": {
    "name": "大和",
    "name:en": "Yamato",
    "name:ja-Hira": "やまと",
    "name:ja-Latn": "Yamato",
    "name:ko": "야마토",
    "public_transport": "station",
    "railway": "station",
    "source": "KSJ2",
    "train": "yes",
    "wikidata": "Q8047989",
    "wikipedia": "ja:大和駅 (茨城県)"
  }
},
{
  "type": "node",
  "id": 264413243,
  "lat": 36.3446637,
  "lon": 140.2887372,
  "tags": {
    "name": "宍戸",
    "name:en": "Shishido",
    "name:ja": "宍戸",
    "name:ja_kana": "ししど",
    "name:ja_rm": "Shishido",
    "name:ko": "시시도",
    "note": "National-Land Numerical Information (Railway) 2007, MLIT Japan",
    "note:ja": "国土数値情報（鉄道データ）平成19年　国土交通省",
    "railway": "station",
    "source": "KSJ2",
    "source_ref": "http://nlftp.mlit.go.jp/ksj/jpgis/datalist/KsjTmplt-N02-v1_1.html",
    "wikidata": "Q7499075",
    "wikipedia": "ja:宍戸駅"
  }
},
{
  "type": "node",
  "id": 264413551,
  "lat": 36.2986752,
  "lon": 139.9390867,
  "tags": {
    "name": "玉戸",
    "name:en": "Tamado",
    "name:ja-Latn": "Tamado",
    "name:ko": "다마도",
    "public_transport": "station",
    "railway": "station",
    "source": "KSJ2",
    "train": "yes",
    "wikidata": "Q7680526",
    "wikipedia": "ja:玉戸駅"
  }
},
{
  "type": "node",
  "id": 264413560,
  "lat": 36.2981402,
  "lon": 139.8724513,
  "tags": {
    "name": "結城",
    "name:en": "Yuki",
    "name:ja-Hira": "ゆうきばいぱす",
    "name:ja-Latn": "Yūki",
    "name:ko": "유키",
    "public_transport": "station",
    "railway": "station",
    "source": "KSJ2",
    "train": "yes",
    "wikidata": "Q8062742",
    "wikipedia": "ja:結城駅"
  }
},
{
  "type": "node",
  "id": 264413561,
  "lat": 36.3007515,
  "lon": 139.8538126,
  "tags": {
    "name": "小田林",
    "name:en": "Otabayashi",
    "name:ja-Hira": "おだばやし",
    "name:ja-Latn": "Otabayashi",
    "name:ko": "오타바야시",
    "public_transport": "station",
    "railway": "station",
    "source": "KSJ2",
    "train": "yes",
    "wikidata": "Q7108331",
    "wikipedia": "ja:小田林駅"
  }
},
{
  "type": "node",
  "id": 264413610,
  "lat": 36.2958866,
  "lon": 139.9157032,
  "tags": {
    "name": "川島",
    "name:en": "Kawashima",
    "name:ja-Hira": "かわしま",
    "name:ja-Latn": "Kawashima",
    "name:ko": "가와시마",
    "public_transport": "station",
    "railway": "station",
    "source": "KSJ2",
    "train": "yes",
    "wikidata": "Q6379871",
    "wikipedia": "ja:川島駅"
  }
},
{
  "type": "node",
  "id": 264413611,
  "lat": 36.2966605,
  "lon": 139.8912361,
  "tags": {
    "name": "東結城",
    "name:en": "Higashi-Yuki",
    "name:ja": "東結城",
    "name:ja_rm": "Higashi-Yūki",
    "name:ko": "히가시유키",
    "public_transport": "station",
    "railway": "station",
    "source": "KSJ2",
    "train": "yes",
    "wikidata": "Q11528183",
    "wikipedia": "ja:東結城駅"
  }
},
{
  "type": "node",
  "id": 264414251,
  "lat": 36.3751771,
  "lon": 139.3741668,
  "tags": {
    "KSJ2:LIN": "両毛線",
    "KSJ2:STN": "小俣",
    "name": "小俣",
    "name:en": "Omata",
    "name:ja": "小俣",
    "name:ja_rm": "Omata",
    "name:ko": "오마타",
    "note": "National-Land Numerical Information (Railway) 2007, MLIT Japan",
    "note:ja": "国土数値情報（鉄道データ）平成19年　国土交通省",
    "public_transport": "station",
    "railway": "station",
    "source": "KSJ2",
    "source_ref": "http://nlftp.mlit.go.jp/ksj/jpgis/datalist/KsjTmplt-N02-v1_1.html",
    "wikidata": "Q7089903",
    "wikipedia": "ja:小俣駅 (栃木県)"
  }
},
{
  "type": "node",
  "id": 264414669,
  "lat": 36.3506750,
  "lon": 139.7818710,
  "tags": {
    "name": "思川",
    "name:en": "Omoigawa",
    "name:ja": "思川",
    "name:ja_rm": "Omoigawa",
    "name:ko": "오모이가와",
    "note": "National-Land Numerical Information (Railway) 2007, MLIT Japan",
    "public_transport": "station",
    "railway": "station",
    "source": "KSJ2",
    "source_ref": "http://nlftp.mlit.go.jp/ksj/jpgis/datalist/KsjTmplt-N02-v1_1.html",
    "wikidata": "Q7090612",
    "wikipedia": "ja:思川駅"
  }
},
{
  "type": "node",
  "id": 264414867,
  "lat": 36.3161615,
  "lon": 139.5288074,
  "tags": {
    "KSJ2:LIN": "両毛線",
    "KSJ2:STN": "富田",
    "name": "富田",
    "name:en": "Tomita",
    "name:ja": "富田",
    "name:ja_rm": "Tomita",
    "name:ko": "도미타",
    "note": "National-Land Numerical Information (Railway) 2007, MLIT Japan",
    "note:ja": "国土数値情報（鉄道データ）平成19年　国土交通省",
    "public_transport": "station",
    "railway": "station",
    "source": "KSJ2",
    "source_ref": "http://nlftp.mlit.go.jp/ksj/jpgis/datalist/KsjTmplt-N02-v1_1.html",
    "wikidata": "Q7818979",
    "wikipedia": "ja:富田駅 (栃木県)"
  }
},
{
  "type": "node",
  "id": 264414923,
  "lat": 36.3319671,
  "lon": 139.4562493,
  "tags": {
    "KSJ2:LIN": "両毛線",
    "KSJ2:STN": "足利",
    "addr:city": "足利市",
    "addr:county": "宇都宮",
    "addr:province": "栃木県",
    "name": "足利",
    "name:en": "Ashikaga",
    "name:ja": "足利",
    "name:ja_rm": "Ashikaga",
    "name:ko": "아시카가",
    "note": "National-Land Numerical Information (Railway) 2007, MLIT Japan",
    "note:ja": "国土数値情報（鉄道データ）平成19年　国土交通省",
    "operator": "足利市",
    "public_transport": "station",
    "railway": "station",
    "source": "KSJ2",
    "source_ref": "http://nlftp.mlit.go.jp/ksj/jpgis/datalist/KsjTmplt-N02-v1_1.html",
    "wikidata": "Q1004362",
    "wikipedia": "ja:足利駅"
  }
},
{
  "type": "node",
  "id": 264415083,
  "lat": 36.3473620,
  "lon": 139.4112837,
  "tags": {
    "KSJ2:LIN": "両毛線",
    "KSJ2:STN": "山前",
    "name": "山前",
    "name:en": "Yama-mae",
    "name:ja": "山前",
    "name:ja_rm": "Yama-mae",
    "name:ko": "야마마에",
    "note": "National-Land Numerical Information (Railway) 2007, MLIT Japan",
    "note:ja": "国土数値情報（鉄道データ）平成19年　国土交通省",
    "public_transport": "station",
    "railway": "station",
    "source": "KSJ2",
    "source_ref": "http://nlftp.mlit.go.jp/ksj/jpgis/datalist/KsjTmplt-N02-v1_1.html",
    "wikidata": "Q8047852",
    "wikipedia": "ja:山前駅"
  }
},
{
  "type": "node",
  "id": 264415788,
  "lat": 36.3541169,
  "lon": 139.1397662,
  "tags": {
    "KSJ2:LIN": "両毛線",
    "KSJ2:STN": "駒形",
    "name": "駒形",
    "name:en": "Komagata",
    "name:ja": "駒形",
    "name:ja_rm": "Komagata",
    "name:ko": "고마가타",
    "note": "National-Land Numerical Information (Railway) 2007, MLIT Japan",
    "note:ja": "国土数値情報（鉄道データ）平成19年　国土交通省",
    "public_transport": "station",
    "railway": "station",
    "source": "KSJ2",
    "source_ref": "http://nlftp.mlit.go.jp/ksj/jpgis/datalist/KsjTmplt-N02-v1_1.html",
    "wikidata": "Q6428058",
    "wikipedia": "ja:駒形駅"
  }
},
{
  "type": "node",
  "id": 264415837,
  "lat": 36.3705515,
  "lon": 139.1096721,
  "tags": {
    "KSJ2:LIN": "両毛線",
    "KSJ2:STN": "前橋大島",
    "name": "前橋大島",
    "name:en": "Maebashi-Oshima",
    "name:ja": "前橋大島",
    "name:ja_rm": "Maebashi-Ōshima",
    "name:ko": "마에바시오시마",
    "note": "National-Land Numerical Information (Railway) 2007, MLIT Japan",
    "note:ja": "国土数値情報（鉄道データ）平成19年　国土交通省",
    "public_transport": "station",
    "railway": "station",
    "source": "KSJ2",
    "source_ref": "http://nlftp.mlit.go.jp/ksj/jpgis/datalist/KsjTmplt-N02-v1_1.html",
    "wikidata": "Q6729071",
    "wikipedia": "ja:前橋大島駅"
  }
},
{
  "type": "node",
  "id": 264460730,
  "lat": 36.5376711,
  "lon": 139.3569927,
  "tags": {
    "KSJ2:LIN": "わたらせ渓谷線",
    "KSJ2:STN": "神戸",
    "name": "神戸",
    "name:en": "Godo",
    "name:ja": "神戸",
    "name:ja_rm": "Godo",
    "name:ko": "고도",
    "note": "National-Land Numerical Information (Railway) 2007, MLIT Japan",
    "note:ja": "国土数値情報（鉄道データ）平成19年　国土交通省",
    "public_transport": "station",
    "railway": "station",
    "source": "KSJ2",
    "source_ref": "http://nlftp.mlit.go.jp/ksj/jpgis/datalist/KsjTmplt-N02-v1_1.html",
    "wikidata": "Q5627753",
    "wikipedia": "ja:神戸駅 (群馬県)"
  }
},
{
  "type": "node",
  "id": 264461214,
  "lat": 36.5809560,
  "lon": 139.3963640,
  "tags": {
    "KSJ2:LIN": "わたらせ渓谷線",
    "KSJ2:STN": "沢入",
    "name": "沢入",
    "name:en": "Sori",
    "name:ja": "沢入",
    "name:ja_rm": "Sori",
    "name:ko": "소리",
    "note": "National-Land Numerical Information (Railway) 2007, MLIT Japan",
    "note:ja": "国土数値情報（鉄道データ）平成19年　国土交通省",
    "public_transport": "station",
    "railway": "station",
    "source": "KSJ2",
    "source_ref": "http://nlftp.mlit.go.jp/ksj/jpgis/datalist/KsjTmplt-N02-v1_1.html",
    "wikidata": "Q7667614",
    "wikipedia": "ja:沢入駅"
  }
},
{
  "type": "node",
  "id": 264461333,
  "lat": 36.5210624,
  "lon": 139.3080639,
  "tags": {
    "KSJ2:LIN": "わたらせ渓谷線",
    "KSJ2:STN": "花輪",
    "name": "花輪",
    "name:en": "Hanawa",
    "name:ja": "花輪",
    "name:ja_rm": "Hanawa",
    "name:ko": "하나와",
    "note": "National-Land Numerical Information (Railway) 2007, MLIT Japan",
    "note:ja": "国土数値情報（鉄道データ）平成19年　国土交通省",
    "public_transport": "station",
    "railway": "station",
    "source": "KSJ2",
    "source_ref": "http://nlftp.mlit.go.jp/ksj/jpgis/datalist/KsjTmplt-N02-v1_1.html",
    "wikidata": "Q5646950",
    "wikipedia": "ja:花輪駅"
  }
},
{
  "type": "node",
  "id": 264461336,
  "lat": 36.4997911,
  "lon": 139.2772166,
  "tags": {
    "KSJ2:LIN": "わたらせ渓谷線",
    "KSJ2:STN": "水沼",
    "name": "水沼",
    "name:en": "Mizunuma",
    "name:ja": "水沼",
    "name:ja_rm": "Mizunuma",
    "name:ko": "미즈누마",
    "note": "National-Land Numerical Information (Railway) 2007, MLIT Japan",
    "note:ja": "国土数値情報（鉄道データ）平成19年　国土交通省",
    "public_transport": "station",
    "railway": "station",
    "source": "KSJ2",
    "source_ref": "http://nlftp.mlit.go.jp/ksj/jpgis/datalist/KsjTmplt-N02-v1_1.html",
    "wikidata": "Q6884893",
    "wikipedia": "ja:水沼駅"
  }
},
{
  "type": "node",
  "id": 264461777,
  "lat": 36.5357510,
  "lon": 139.3381690,
  "tags": {
    "KSJ2:LIN": "わたらせ渓谷線",
    "KSJ2:STN": "小中",
    "name": "小中",
    "name:en": "Konaka",
    "name:ja": "小中",
    "name:ja_rm": "Konaka",
    "name:ko": "고나카",
    "note": "National-Land Numerical Information (Railway) 2007, MLIT Japan",
    "note:ja": "国土数値情報（鉄道データ）平成19年　国土交通省",
    "public_transport": "station",
    "railway": "station",
    "source": "KSJ2",
    "source_ref": "http://nlftp.mlit.go.jp/ksj/jpgis/datalist/KsjTmplt-N02-v1_1.html",
    "wikidata": "Q6428729",
    "wikipedia": "ja:小中駅"
  }
},
{
  "type": "node",
  "id": 264461907,
  "lat": 36.5241227,
  "lon": 139.3171370,
  "tags": {
    "KSJ2:LIN": "わたらせ渓谷線",
    "KSJ2:STN": "中野",
    "name": "中野",
    "name:en": "Nakano",
    "name:ja": "中野",
    "name:ja_rm": "Nakano",
    "name:ko": "나카노",
    "note": "National-Land Numerical Information (Railway) 2007, MLIT Japan",
    "note:ja": "国土数値情報（鉄道データ）平成19年　国土交通省",
    "public_transport": "station",
    "railway": "station",
    "source": "KSJ2",
    "source_ref": "http://nlftp.mlit.go.jp/ksj/jpgis/datalist/KsjTmplt-N02-v1_1.html",
    "wikidata": "Q6960274",
    "wikipedia": "ja:中野駅 (群馬県)"
  }
},
{
  "type": "node",
  "id": 264462300,
  "lat": 36.4345689,
  "lon": 139.2776411,
  "tags": {
    "KSJ2:LIN": "わたらせ渓谷線",
    "KSJ2:STN": "大間々",
    "name": "大間々",
    "name:en": "Omama",
    "name:ja": "大間々",
    "name:ja_rm": "Omama",
    "name:ko": "오마마",
    "note": "National-Land Numerical Information (Railway) 2007, MLIT Japan",
    "note:ja": "国土数値情報（鉄道データ）平成19年　国土交通省",
    "public_transport": "station",
    "railway": "station",
    "source": "KSJ2",
    "source_ref": "http://nlftp.mlit.go.jp/ksj/jpgis/datalist/KsjTmplt-N02-v1_1.html",
    "wikidata": "Q8081605",
    "wikipedia": "ja:大間々駅"
  }
},
{
  "type": "node",
  "id": 264813033,
  "lat": 35.5871140,
  "lon": 139.6298345,
  "tags": {
    "name": "武蔵新城",
    "name:en": "Musashi-Shinjo",
    "name:ja": "武蔵新城",
    "name:ja_kana": "むさししんじょう",
    "name:ja_rm": "Musashi Shinjō",
    "name:ko": "무사시신조",
    "operator": "東日本旅客鉄道",
    "public_transport": "station",
    "railway": "station",
    "source": "KSJ2",
    "wikidata": "Q5366887",
    "wikipedia": "ja:武蔵新城駅"
  }
},
{
  "type": "node",
  "id": 264813142,
  "lat": 35.5991705,
  "lon": 139.6110027,
  "tags": {
    "name": "武蔵溝ノ口",
    "name:en": "Musashi-Mizonokuchi",
    "name:ja": "武蔵溝ノ口",
    "name:ja_kana": "むさしみぞのくち",
    "name:ja_rm": "Musashi Mizonokuchi",
    "name:ko": "무사시미조노쿠치",
    "operator": "東日本旅客鉄道",
    "public_transport": "station",
    "railway": "station",
    "train": "yes",
    "wikidata": "Q5367854",
    "wikipedia": "ja:武蔵溝ノ口駅"
  }
},
{
  "type": "node",
  "id": 264813249,
  "lat": 35.5808928,
  "lon": 139.6417447,
  "tags": {
    "name": "武蔵中原",
    "name:en": "Musashi-Nakahara",
    "name:ja_kana": "むさしなかはら",
    "name:ja_rm": "Musashi Nakahara",
    "operator": "東日本旅客鉄道",
    "public_transport": "station",
    "railway": "station",
    "source": "KSJ2",
    "wikidata": "Q5367238",
    "wikipedia": "ja:武蔵中原駅"
  }
},
{
  "type": "node",
  "id": 264813299,
  "lat": 35.6932804,
  "lon": 139.4241055,
  "tags": {
    "KSJ2:LIN": "南武線",
    "name": "西国立",
    "name:en": "Nishi-Kunitachi",
    "name:ja": "西国立",
    "name:ja_kana": "にしくにたち",
    "name:ja_rm": "Nishi Kunitachi",
    "name:ko": "니시쿠니타치",
    "note": "National-Land Numerical Information (Railway) 2007, MLIT Japan",
    "note:ja": "国土数値情報（鉄道データ）平成19年　国土交通省",
    "operator": "東日本旅客鉄道",
    "public_transport": "station",
    "railway": "station",
    "source": "KSJ2",
    "source_ref": "http://nlftp.mlit.go.jp/ksj/jpgis/datalist/KsjTmplt-N02-v1_1.html",
    "wheelchair": "yes",
    "wikidata": "Q5366355",
    "wikipedia": "ja:西国立駅"
  }
},
{
  "type": "node",
  "id": 264813301,
  "lat": 35.6849629,
  "lon": 139.4321775,
  "tags": {
    "name": "矢川",
    "name:en": "Yagawa",
    "name:ja": "矢川",
    "name:ja_kana": "やがわ",
    "name:ja_rm": "Yagawa",
    "name:ko": "야가와",
    "note": "National-Land Numerical Information (Railway) 2007, MLIT Japan",
    "note:ja": "国土数値情報（鉄道データ）平成19年　国土交通省",
    "operator": "東日本旅客鉄道",
    "public_transport": "station",
    "railway": "station",
    "source": "KSJ2",
    "source_ref": "http://nlftp.mlit.go.jp/ksj/jpgis/datalist/KsjTmplt-N02-v1_1.html",
    "wikidata": "Q5366364",
    "wikipedia": "ja:矢川駅"
  }
},
{
  "type": "node",
  "id": 264813406,
  "lat": 35.6335548,
  "lon": 139.5353661,
  "tags": {
    "name": "稲田堤",
    "name:en": "Inadazutsumi",
    "name:ja": "稲田堤",
    "name:ja-Latn": "いなだづつみ",
    "name:ja_rm": "Inadazutsumi",
    "name:ko": "이나다즈쓰미",
    "note": "National-Land Numerical Information (Railway) 2007, MLIT Japan",
    "operator": "東日本旅客鉄道",
    "public_transport": "station",
    "railway": "station",
    "source": "KSJ2",
    "source_ref": "http://nlftp.mlit.go.jp/ksj/jpgis/datalist/KsjTmplt-N02-v1_1.html",
    "train": "yes",
    "wikidata": "Q5368291",
    "wikipedia": "ja:稲田堤駅"
  }
},
{
  "type": "node",
  "id": 264813865,
  "lat": 35.6814533,
  "lon": 139.4466026,
  "tags": {
    "name": "谷保",
    "name:en": "Yaho",
    "name:ja": "谷保",
    "name:ja_kana": "やほ",
    "name:ja_rm": "Yaho",
    "name:ko": "야호",
    "note": "National-Land Numerical Information (Railway) 2007, MLIT Japan",
    "note:ja": "国土数値情報（鉄道データ）平成19年　国土交通省",
    "operator": "東日本旅客鉄道",
    "public_transport": "station",
    "railway": "station",
    "source": "KSJ2",
    "source_ref": "http://nlftp.mlit.go.jp/ksj/jpgis/datalist/KsjTmplt-N02-v1_1.html",
    "wikidata": "Q5366778",
    "wikipedia": "ja:谷保駅"
  }
},
{
  "type": "node",
  "id": 264813889,
  "lat": 35.6208403,
  "lon": 139.5699933,
  "tags": {
    "name": "登戸",
    "name:en": "Noborito",
    "name:ja": "登戸",
    "name:ja-Latn": "のぼりと",
    "name:ko": "노보리토",
    "note": "National-Land Numerical Information (Railway) 2007, MLIT Japan",
    "operator": "東日本旅客鉄道",
    "public_transport": "station",
    "railway": "station",
    "source": "KSJ2",
    "train": "yes",
    "wheelchair": "yes",
    "wikidata": "Q801266",
    "wikipedia": "ja:登戸駅"
  }
},
{
  "type": "node",
  "id": 264813956,
  "lat": 35.6661093,
  "lon": 139.4771010,
  "tags": {
    "name": "府中本町",
    "name:en": "Fuchu-Hommachi",
    "name:ja": "府中本町",
    "name:ja_kana": "ふちゅうほんまち",
    "name:ja_rm": "Fuchū-Hommachi",
    "name:ko": "후추혼마치",
    "note": "National-Land Numerical Information (Railway) 2007, MLIT Japan",
    "note:ja": "国土数値情報（鉄道データ）平成19年　国土交通省",
    "operator": "東日本旅客鉄道",
    "public_transport": "station",
    "railway": "station",
    "source": "KSJ2",
    "source_ref": "http://nlftp.mlit.go.jp/ksj/jpgis/datalist/KsjTmplt-N02-v1_1.html",
    "wheelchair": "yes",
    "wikidata": "Q800794",
    "wikipedia": "ja:府中本町駅"
  }
},
{
  "type": "node",
  "id": 264814064,
  "lat": 35.5181486,
  "lon": 139.6994733,
  "tags": {
    "name": "川崎新町",
    "name:en": "Kawasaki-Shinmachi",
    "name:ja": "川崎新町",
    "name:ja_kana": "かわさきしんまち",
    "name:ja_rm": "Kawasaki Shimmachi",
    "name:ko": "가와사키신마치",
    "note": "National-Land Numerical Information (Railway) 2007, MLIT Japan",
    "operator": "東日本旅客鉄道",
    "public_transport": "station",
    "railway": "station",
    "source": "KSJ2",
    "source_ref": "http://nlftp.mlit.go.jp/ksj/jpgis/datalist/KsjTmplt-N02-v1_1.html",
    "wikidata": "Q6379722",
    "wikipedia": "ja:川崎新町駅"
  }
},
{
  "type": "node",
  "id": 264814072,
  "lat": 35.5103290,
  "lon": 139.7137920,
  "tags": {
    "name": "浜川崎",
    "name:en": "Hama-Kawasaki",
    "name:ja": "浜川崎",
    "name:ja_kana": "はまかわさき",
    "name:ja_rm": "Hama Kawasaki",
    "name:ko": "하마카와사키",
    "note": "National-Land Numerical Information (Railway) 2007, MLIT Japan",
    "operator": "東日本旅客鉄道",
    "public_transport": "station",
    "railway": "station",
    "ref": "JN54",
    "source": "KSJ2",
    "source_ref": "http://nlftp.mlit.go.jp/ksj/jpgis/datalist/KsjTmplt-N02-v1_1.html",
    "wikidata": "Q1581467",
    "wikipedia": "ja:浜川崎駅"
  }
},
{
  "type": "node",
  "id": 264820798,
  "lat": 35.6039397,
  "lon": 138.8253537,
  "tags": {
    "name": "笹子",
    "name:en": "Sasago",
    "name:ja-Hira": "ささご",
    "name:ja-Latn": "Sasago",
    "public_transport": "station",
    "railway": "station",
    "source": "KSJ2",
    "train": "yes",
    "wikidata": "Q7424971",
    "wikipedia": "ja:笹子駅"
  }
},
{
  "type": "node",
  "id": 264879895,
  "lat": 36.4854010,
  "lon": 139.8355625,
  "tags": {
    "name": "安塚",
    "name:en": "Yasuzuka",
    "name:ja": "安塚",
    "name:ja_rm": "Yasuzuka",
    "name:ko": "야스즈카",
    "note": "National-Land Numerical Information (Railway) 2007, MLIT Japan",
    "public_transport": "station",
    "railway": "station",
    "ref": "TN36",
    "source": "KSJ2",
    "source_ref": "http://nlftp.mlit.go.jp/ksj/jpgis/datalist/KsjTmplt-N02-v1_1.html",
    "wikidata": "Q8050142",
    "wikipedia": "ja:安塚駅"
  }
},
{
  "type": "node",
  "id": 264880117,
  "lat": 36.4016659,
  "lon": 139.7541038,
  "tags": {
    "name": "野州平川",
    "name:en": "Yashu-Hirakawa",
    "name:ja": "野州平川",
    "name:ja_rm": "Yashū-Hirakawa",
    "name:ko": "야슈히라카와",
    "note": "National-Land Numerical Information (Railway) 2007, MLIT Japan",
    "public_transport": "station",
    "railway": "station",
    "ref": "TN31",
    "source": "KSJ2",
    "source_ref": "http://nlftp.mlit.go.jp/ksj/jpgis/datalist/KsjTmplt-N02-v1_1.html",
    "wikidata": "Q8049775",
    "wikipedia": "ja:野州平川駅"
  }
},
{
  "type": "node",
  "id": 264880119,
  "lat": 36.5313677,
  "lon": 139.8609909,
  "tags": {
    "name": "江曽島",
    "name:en": "Esojima",
    "name:ja": "江曽島",
    "name:ja_rm": "Esojima",
    "name:ko": "에소지마",
    "note": "National-Land Numerical Information (Railway) 2007, MLIT Japan",
    "public_transport": "station",
    "railway": "station",
    "ref": "TN38",
    "source": "KSJ2",
    "source_ref": "http://nlftp.mlit.go.jp/ksj/jpgis/datalist/KsjTmplt-N02-v1_1.html",
    "wikidata": "Q5398613",
    "wikipedia": "ja:江曽島駅"
  }
},
{
  "type": "node",
  "id": 264880341,
  "lat": 36.5146640,
  "lon": 139.8505660,
  "tags": {
    "name": "西川田",
    "name:en": "Nishi-Kawada",
    "name:ja": "西川田",
    "name:ja_rm": "Nishi-Kawada",
    "name:ko": "니시카와다",
    "note": "National-Land Numerical Information (Railway) 2007, MLIT Japan",
    "public_transport": "station",
    "railway": "station",
    "ref": "TN37",
    "source": "KSJ2",
    "source_ref": "http://nlftp.mlit.go.jp/ksj/jpgis/datalist/KsjTmplt-N02-v1_1.html",
    "wikidata": "Q11628148",
    "wikipedia": "ja:西川田駅"
  }
},
{
  "type": "node",
  "id": 264880343,
  "lat": 36.5436330,
  "lon": 139.8717132,
  "tags": {
    "name": "南宇都宮",
    "name:en": "Minami-Utsunomiya",
    "name:ja": "南宇都宮",
    "name:ja_rm": "Minami-Utsunomiya",
    "name:ko": "미나미우쓰노미야",
    "note": "National-Land Numerical Information (Railway) 2007, MLIT Japan",
    "public_transport": "station",
    "railway": "station",
    "ref": "TN39",
    "source": "KSJ2",
    "source_ref": "http://nlftp.mlit.go.jp/ksj/jpgis/datalist/KsjTmplt-N02-v1_1.html",
    "wikidata": "Q6862982",
    "wikipedia": "ja:南宇都宮駅"
  }
},